{
"type": "FeatureCollection",
"name": "afp15_UF",
"crs": { "type": "name", "properties": { "name": "urn:ogc:def:crs:OGC:1.3:CRS84" } },
"features": [
{ "type": "Feature", "properties": { "agglosID": 6851.0, "agglosName": "Nouadhibou", "ISO3": "MRT", "Pop2015": 129573.0, "Sprawl": 0.615730871, "Elongation": 7.199371962 }, "geometry": { "type": "Point", "coordinates": [ -17.034433526503307, 20.955847765841064 ] } },
{ "type": "Feature", "properties": { "agglosID": 6802.0, "agglosName": "Nkopola", "ISO3": "MWI", "Pop2015": 51050.0, "Sprawl": 2.970243238, "Elongation": 18.39603302 }, "geometry": { "type": "Point", "coordinates": [ 35.146857424555819, -14.337645694590936 ] } },
{ "type": "Feature", "properties": { "agglosID": 6741.0, "agglosName": "Niamey", "ISO3": "NER", "Pop2015": 1071481.0, "Sprawl": 0.645670081, "Elongation": 4.288843823 }, "geometry": { "type": "Point", "coordinates": [ 2.117638833508044, 13.518041798601114 ] } },
{ "type": "Feature", "properties": { "agglosID": 6899.0, "agglosName": "Nyala", "ISO3": "SDN", "Pop2015": 564582.0, "Sprawl": null, "Elongation": null }, "geometry": { "type": "Point", "coordinates": [ 24.881815219842174, 12.05390897456981 ] } },
{ "type": "Feature", "properties": { "agglosID": 6869.0, "agglosName": "Nsukka", "ISO3": "NGA", "Pop2015": 1430312.0, "Sprawl": 0.989525575, "Elongation": 10.07742213 }, "geometry": { "type": "Point", "coordinates": [ 7.420756364691318, 6.852763628828765 ] } },
{ "type": "Feature", "properties": { "agglosID": 7593.0, "agglosName": "Ruwa", "ISO3": "ZWE", "Pop2015": 75079.0, "Sprawl": null, "Elongation": null }, "geometry": { "type": "Point", "coordinates": [ 31.210619899708206, -17.865442495612015 ] } },
{ "type": "Feature", "properties": { "agglosID": 7559.0, "agglosName": "Rubengera", "ISO3": "RWA", "Pop2015": 89838.0, "Sprawl": 2.095239417, "Elongation": 10.14087676 }, "geometry": { "type": "Point", "coordinates": [ 29.348868304729955, -2.080447501971538 ] } },
{ "type": "Feature", "properties": { "agglosID": 7586.0, "agglosName": "Ruru", "ISO3": "SDN", "Pop2015": 18690.0, "Sprawl": 1.654503589, "Elongation": 9.439513751 }, "geometry": { "type": "Point", "coordinates": [ 33.654238033375869, 11.896192531753808 ] } },
{ "type": "Feature", "properties": { "agglosID": 7508.0, "agglosName": "Richard-toll", "ISO3": "SEN", "Pop2015": 60596.0, "Sprawl": 0.870104528, "Elongation": 6.47187359 }, "geometry": { "type": "Point", "coordinates": [ -15.668632451593361, 16.460987424380317 ] } },
{ "type": "Feature", "properties": { "agglosID": 7673.0, "agglosName": "Saint-louis", "ISO3": "SEN", "Pop2015": 222043.0, "Sprawl": 0.916796881, "Elongation": 6.152050164 }, "geometry": { "type": "Point", "coordinates": [ -16.490469857237944, 16.023758921099173 ] } },
{ "type": "Feature", "properties": { "agglosID": 7356.0, "agglosName": "Port elizabeth", "ISO3": "ZAF", "Pop2015": 788204.0, "Sprawl": 0.747835377, "Elongation": 4.737198883 }, "geometry": { "type": "Point", "coordinates": [ 25.552412834314161, -33.91382907786226 ] } },
{ "type": "Feature", "properties": { "agglosID": 7357.0, "agglosName": "Port harcourt", "ISO3": "NGA", "Pop2015": 1845232.0, "Sprawl": 0.574071257, "Elongation": 4.491426078 }, "geometry": { "type": "Point", "coordinates": [ 6.995908363227225, 4.829793286385716 ] } },
{ "type": "Feature", "properties": { "agglosID": 7268.0, "agglosName": "Palapye", "ISO3": "BWA", "Pop2015": 40874.0, "Sprawl": 1.034499127, "Elongation": 6.262223306 }, "geometry": { "type": "Point", "coordinates": [ 27.118214539436632, -22.541767892409389 ] } },
{ "type": "Feature", "properties": { "agglosID": 7457.0, "agglosName": "Rabat", "ISO3": "MAR", "Pop2015": 1925479.0, "Sprawl": null, "Elongation": null }, "geometry": { "type": "Point", "coordinates": [ -6.832502661065083, 33.97761900368787 ] } },
{ "type": "Feature", "properties": { "agglosID": 7461.0, "agglosName": "Rahama", "ISO3": "NGA", "Pop2015": 85080.0, "Sprawl": 1.010772197, "Elongation": 6.426576929 }, "geometry": { "type": "Point", "coordinates": [ 8.686015122221191, 10.419122665764917 ] } },
{ "type": "Feature", "properties": { "agglosID": 7417.0, "agglosName": "Qasr khiyar (قصر خيار)", "ISO3": "LBY", "Pop2015": 29565.0, "Sprawl": null, "Elongation": null }, "geometry": { "type": "Point", "coordinates": [ 13.860182845050172, 32.69377269858316 ] } },
{ "type": "Feature", "properties": { "agglosID": 3719.0, "agglosName": "Madina al-masna'a (sugar complex)", "ISO3": "SDN", "Pop2015": 23582.0, "Sprawl": 0.701964552, "Elongation": 5.256886347 }, "geometry": { "type": "Point", "coordinates": [ 35.55229804155212, 15.476086734069467 ] } },
{ "type": "Feature", "properties": { "agglosID": 3743.0, "agglosName": "Harare", "ISO3": "ZWE", "Pop2015": 2272905.0, "Sprawl": 0.956896814, "Elongation": 5.986926246 }, "geometry": { "type": "Point", "coordinates": [ 30.997649029098326, -17.88102954826639 ] } },
{ "type": "Feature", "properties": { "agglosID": 3848.0, "agglosName": "Huw", "ISO3": "EGY", "Pop2015": 406775.0, "Sprawl": 1.833200765, "Elongation": 11.3630595 }, "geometry": { "type": "Point", "coordinates": [ 32.163740424217053, 26.04952488638591 ] } },
{ "type": "Feature", "properties": { "agglosID": 3853.0, "agglosName": "Ibadan", "ISO3": "NGA", "Pop2015": 3088477.0, "Sprawl": 0.514041461, "Elongation": 3.700603339 }, "geometry": { "type": "Point", "coordinates": [ 3.943737626188288, 7.426366392275257 ] } },
{ "type": "Feature", "properties": { "agglosID": 4544.0, "agglosName": "Kapoya/kasembe", "ISO3": "ZMB", "Pop2015": 26486.0, "Sprawl": 2.392021843, "Elongation": 18.09414286 }, "geometry": { "type": "Point", "coordinates": [ 29.026274826839035, -8.542264351492619 ] } },
{ "type": "Feature", "properties": { "agglosID": 4671.0, "agglosName": "Kayes", "ISO3": "MLI", "Pop2015": 176849.0, "Sprawl": null, "Elongation": null }, "geometry": { "type": "Point", "coordinates": [ -11.444742547878786, 14.442405462525642 ] } },
{ "type": "Feature", "properties": { "agglosID": 4641.0, "agglosName": "Katete", "ISO3": "ZMB", "Pop2015": 22976.0, "Sprawl": 1.472149263, "Elongation": 11.21015487 }, "geometry": { "type": "Point", "coordinates": [ 32.047008546627922, -14.074285876305019 ] } },
{ "type": "Feature", "properties": { "agglosID": 4579.0, "agglosName": "Karoi", "ISO3": "ZWE", "Pop2015": 18236.0, "Sprawl": 1.330062894, "Elongation": 7.074037721 }, "geometry": { "type": "Point", "coordinates": [ 29.689748448486455, -16.817125819482339 ] } },
{ "type": "Feature", "properties": { "agglosID": 4289.0, "agglosName": "Kadoma", "ISO3": "ZWE", "Pop2015": 100215.0, "Sprawl": 0.957994814, "Elongation": 6.24358113 }, "geometry": { "type": "Point", "coordinates": [ 29.913466253989114, -18.335641478694725 ] } },
{ "type": "Feature", "properties": { "agglosID": 4292.0, "agglosName": "Kaduqli", "ISO3": "SDN", "Pop2015": 78329.0, "Sprawl": 1.286383845, "Elongation": 6.619535825 }, "geometry": { "type": "Point", "coordinates": [ 29.71784758844143, 10.998938967403117 ] } },
{ "type": "Feature", "properties": { "agglosID": 4198.0, "agglosName": "Jrada", "ISO3": "MAR", "Pop2015": 43475.0, "Sprawl": null, "Elongation": null }, "geometry": { "type": "Point", "coordinates": [ -2.199689485976214, 34.30887417785231 ] } },
{ "type": "Feature", "properties": { "agglosID": 4944.0, "agglosName": "Koidu", "ISO3": "SLE", "Pop2015": 138364.0, "Sprawl": 0.737630287, "Elongation": 8.341059302 }, "geometry": { "type": "Point", "coordinates": [ -10.947894718212424, 8.634683029795099 ] } },
{ "type": "Feature", "properties": { "agglosID": 5172.0, "agglosName": "Kwekwe (east)", "ISO3": "ZWE", "Pop2015": 106927.0, "Sprawl": 1.357522226, "Elongation": 6.53758675 }, "geometry": { "type": "Point", "coordinates": [ 29.844963981529748, -18.918661508446554 ] } },
{ "type": "Feature", "properties": { "agglosID": 5112.0, "agglosName": "Kumasi", "ISO3": "GHA", "Pop2015": 2802344.0, "Sprawl": 0.581844542, "Elongation": 4.199586381 }, "geometry": { "type": "Point", "coordinates": [ -1.626577020274295, 6.683222989238304 ] } },
{ "type": "Feature", "properties": { "agglosID": 4746.0, "agglosName": "Khemisset", "ISO3": "MAR", "Pop2015": 133776.0, "Sprawl": null, "Elongation": null }, "geometry": { "type": "Point", "coordinates": [ -6.074113568286048, 33.821468997505221 ] } },
{ "type": "Feature", "properties": { "agglosID": 4760.0, "agglosName": "Khuma", "ISO3": "ZAF", "Pop2015": 49586.0, "Sprawl": 0.740664975, "Elongation": 5.228718295 }, "geometry": { "type": "Point", "coordinates": [ 26.864162544913881, -26.85193693246072 ] } },
{ "type": "Feature", "properties": { "agglosID": 4713.0, "agglosName": "Kénitra", "ISO3": "MAR", "Pop2015": 467121.0, "Sprawl": null, "Elongation": null }, "geometry": { "type": "Point", "coordinates": [ -6.593564571278682, 34.262202589570279 ] } },
{ "type": "Feature", "properties": { "agglosID": 4740.0, "agglosName": "Khartum", "ISO3": "SDN", "Pop2015": 5264746.0, "Sprawl": 0.604996296, "Elongation": 5.304394897 }, "geometry": { "type": "Point", "coordinates": [ 32.538126511274569, 15.521995758012851 ] } },
{ "type": "Feature", "properties": { "agglosID": 4920.0, "agglosName": "Kitwe", "ISO3": "ZMB", "Pop2015": 601203.0, "Sprawl": 0.791736185, "Elongation": 5.371564331 }, "geometry": { "type": "Point", "coordinates": [ 28.211730671055861, -12.809053172035465 ] } },
{ "type": "Feature", "properties": { "agglosID": 4899.0, "agglosName": "Kisii", "ISO3": "KEN", "Pop2015": 3407476.0, "Sprawl": 1.677377932, "Elongation": 9.262651263 }, "geometry": { "type": "Point", "coordinates": [ 34.695713265068456, -0.631838532485529 ] } },
{ "type": "Feature", "properties": { "agglosID": 5480.0, "agglosName": "Magbon", "ISO3": "NGA", "Pop2015": 125163.0, "Sprawl": 0.933421513, "Elongation": 5.889062707 }, "geometry": { "type": "Point", "coordinates": [ 3.07365972130198, 6.53300469466469 ] } },
{ "type": "Feature", "properties": { "agglosID": 5687.0, "agglosName": "Mansur kawti", "ISO3": "SDN", "Pop2015": 48405.0, "Sprawl": 2.868278633, "Elongation": 16.71807351 }, "geometry": { "type": "Point", "coordinates": [ 31.304606979867732, 17.994403434971382 ] } },
{ "type": "Feature", "properties": { "agglosID": 5668.0, "agglosName": "Mankesim", "ISO3": "GHA", "Pop2015": 110072.0, "Sprawl": 2.122318558, "Elongation": 11.05680326 }, "geometry": { "type": "Point", "coordinates": [ -1.031761322962518, 5.234179767955489 ] } },
{ "type": "Feature", "properties": { "agglosID": 5616.0, "agglosName": "Wesbank", "ISO3": "ZAF", "Pop2015": 42948.0, "Sprawl": 0.74795865, "Elongation": 3.687403449 }, "geometry": { "type": "Point", "coordinates": [ 18.730908022071493, -33.460283706880901 ] } },
{ "type": "Feature", "properties": { "agglosID": 5590.0, "agglosName": "Kisumu/mbale/busia/sirari [uga] 3", "ISO3": "UGA", "Pop2015": 79916.0, "Sprawl": 2.94078084, "Elongation": 14.84327828 }, "geometry": { "type": "Point", "coordinates": [ 34.326244338179649, 0.63048789301297 ] } },
{ "type": "Feature", "properties": { "agglosID": 5599.0, "agglosName": "Malanje", "ISO3": "AGO", "Pop2015": 469005.0, "Sprawl": 0.58679896, "Elongation": 4.797612092 }, "geometry": { "type": "Point", "coordinates": [ 16.364360336164847, -9.544293988051983 ] } },
{ "type": "Feature", "properties": { "agglosID": 5591.0, "agglosName": "Malaba [uga]", "ISO3": "KEN", "Pop2015": 18605.0, "Sprawl": null, "Elongation": null }, "geometry": { "type": "Point", "coordinates": [ 34.245579461059123, 0.96378071245198 ] } },
{ "type": "Feature", "properties": { "agglosID": 5299.0, "agglosName": "Loburo", "ISO3": "NGA", "Pop2015": 269118.0, "Sprawl": 0.643461462, "Elongation": 5.711335591 }, "geometry": { "type": "Point", "coordinates": [ 3.418588947971573, 6.781529235804475 ] } },
{ "type": "Feature", "properties": { "agglosID": 5309.0, "agglosName": "Lokoja", "ISO3": "NGA", "Pop2015": 333615.0, "Sprawl": 0.98696251, "Elongation": 6.01063434 }, "geometry": { "type": "Point", "coordinates": [ 6.728789194035716, 7.789573556664671 ] } },
{ "type": "Feature", "properties": { "agglosID": 5275.0, "agglosName": "Lilongwe", "ISO3": "MWI", "Pop2015": 1124965.0, "Sprawl": 0.809071793, "Elongation": 5.638962732 }, "geometry": { "type": "Point", "coordinates": [ 33.758309683242111, -13.981943304979369 ] } },
{ "type": "Feature", "properties": { "agglosID": 5199.0, "agglosName": "Lagos", "ISO3": "NGA", "Pop2015": 11847635.0, "Sprawl": 0.498241295, "Elongation": 4.967384257 }, "geometry": { "type": "Point", "coordinates": [ 3.192723932810805, 6.667774525044013 ] } },
{ "type": "Feature", "properties": { "agglosID": 5398.0, "agglosName": "Lusaka", "ISO3": "ZMB", "Pop2015": 2426689.0, "Sprawl": 0.527685107, "Elongation": 4.855624908 }, "geometry": { "type": "Point", "coordinates": [ 28.264211686825295, -15.413491901675801 ] } },
{ "type": "Feature", "properties": { "agglosID": 5331.0, "agglosName": "Luanda", "ISO3": "AGO", "Pop2015": 6979211.0, "Sprawl": 0.511914454, "Elongation": 4.481354965 }, "geometry": { "type": "Point", "coordinates": [ 13.384933430092449, -8.923933655183449 ] } },
{ "type": "Feature", "properties": { "agglosID": 5333.0, "agglosName": "Luanshya", "ISO3": "ZMB", "Pop2015": 144798.0, "Sprawl": 0.998311211, "Elongation": 5.400004267 }, "geometry": { "type": "Point", "coordinates": [ 28.423829820541975, -13.147 ] } },
{ "type": "Feature", "properties": { "agglosID": 5344.0, "agglosName": "Lubumbashi", "ISO3": "COD", "Pop2015": 2077000.0, "Sprawl": 0.528378734, "Elongation": 4.414552866 }, "geometry": { "type": "Point", "coordinates": [ 27.486504562619764, -11.65498236080283 ] } },
{ "type": "Feature", "properties": { "agglosID": 5336.0, "agglosName": "Lubango", "ISO3": "AGO", "Pop2015": 615770.0, "Sprawl": 0.552127326, "Elongation": 5.165854167 }, "geometry": { "type": "Point", "coordinates": [ 13.492845676275088, -14.902548068371605 ] } },
{ "type": "Feature", "properties": { "agglosID": 1966.0, "agglosName": "Blantyre", "ISO3": "MWI", "Pop2015": 1057790.0, "Sprawl": 0.662070225, "Elongation": 7.33558468 }, "geometry": { "type": "Point", "coordinates": [ 35.015989045683483, -15.761979529056298 ] } },
{ "type": "Feature", "properties": { "agglosID": 1975.0, "agglosName": "Bobo-dioulasso", "ISO3": "BFA", "Pop2015": 667853.0, "Sprawl": 0.660444624, "Elongation": 3.7423545 }, "geometry": { "type": "Point", "coordinates": [ -4.303300887125777, 11.201361436823344 ] } },
{ "type": "Feature", "properties": { "agglosID": 2009.0, "agglosName": "Boké", "ISO3": "GIN", "Pop2015": 63090.0, "Sprawl": 1.111176561, "Elongation": 8.278735528 }, "geometry": { "type": "Point", "coordinates": [ -14.278889570286992, 10.940325724939232 ] } },
{ "type": "Feature", "properties": { "agglosID": 1639.0, "agglosName": "Banī walīd (بني وليد)", "ISO3": "LBY", "Pop2015": 61498.0, "Sprawl": null, "Elongation": null }, "geometry": { "type": "Point", "coordinates": [ 13.991701525386713, 31.779075150257782 ] } },
{ "type": "Feature", "properties": { "agglosID": 1813.0, "agglosName": "Melilla/bni ansar [mar]", "ISO3": "MAR", "Pop2015": 61386.0, "Sprawl": 0.446760106, "Elongation": 2.75879442 }, "geometry": { "type": "Point", "coordinates": [ -2.927885246145899, 35.26749727544648 ] } },
{ "type": "Feature", "properties": { "agglosID": 1821.0, "agglosName": "Beni tamou", "ISO3": "DZA", "Pop2015": 65777.0, "Sprawl": 0.766667007, "Elongation": 4.271423855 }, "geometry": { "type": "Point", "coordinates": [ 2.820605816589663, 36.53834182011154 ] } },
{ "type": "Feature", "properties": { "agglosID": 2478.0, "agglosName": "Cidade de maputo", "ISO3": "MOZ", "Pop2015": 2607026.0, "Sprawl": 0.556829948, "Elongation": 7.029575205 }, "geometry": { "type": "Point", "coordinates": [ 32.510337610744799, -25.782024445743716 ] } },
{ "type": "Feature", "properties": { "agglosID": 2416.0, "agglosName": "Chibuluma", "ISO3": "ZMB", "Pop2015": 54207.0, "Sprawl": 1.130027612, "Elongation": 6.278443479 }, "geometry": { "type": "Point", "coordinates": [ 28.090504343750695, -12.844079913359909 ] } },
{ "type": "Feature", "properties": { "agglosID": 2400.0, "agglosName": "Gisenyi/goma/kisoro/bunagana [zar] 2", "ISO3": "COD", "Pop2015": 70000.0, "Sprawl": null, "Elongation": null }, "geometry": { "type": "Point", "coordinates": [ 29.537957009947295, -1.278711665589845 ] } },
{ "type": "Feature", "properties": { "agglosID": 2503.0, "agglosName": "Constantine", "ISO3": "DZA", "Pop2015": 703927.0, "Sprawl": 0.996460496, "Elongation": 7.177837053 }, "geometry": { "type": "Point", "coordinates": [ 6.608703369199666, 36.345139361498326 ] } },
{ "type": "Feature", "properties": { "agglosID": 2505.0, "agglosName": "Cotonou", "ISO3": "BEN", "Pop2015": 1527277.0, "Sprawl": 0.739907279, "Elongation": 6.684687891 }, "geometry": { "type": "Point", "coordinates": [ 2.354880222849282, 6.501431639346686 ] } },
{ "type": "Feature", "properties": { "agglosID": 2198.0, "agglosName": "Bukavu/cyangugu [zar]", "ISO3": "COD", "Pop2015": 754000.0, "Sprawl": 0.53498241, "Elongation": 8.63257231 }, "geometry": { "type": "Point", "coordinates": [ 28.862386751185991, -2.567265712067261 ] } },
{ "type": "Feature", "properties": { "agglosID": 2204.0, "agglosName": "Bulawayo", "ISO3": "ZWE", "Pop2015": 663804.0, "Sprawl": 0.887451214, "Elongation": 5.316930319 }, "geometry": { "type": "Point", "coordinates": [ 28.57356064433797, -20.15809100575467 ] } },
{ "type": "Feature", "properties": { "agglosID": 2167.0, "agglosName": "Brikama", "ISO3": "GMB", "Pop2015": 112933.0, "Sprawl": 0.673213632, "Elongation": 5.635930572 }, "geometry": { "type": "Point", "coordinates": [ -16.637625460488685, 13.250707769435301 ] } },
{ "type": "Feature", "properties": { "agglosID": 2364.0, "agglosName": "Twaiteka", "ISO3": "ZMB", "Pop2015": 33903.0, "Sprawl": 0.713550415, "Elongation": 4.634635136 }, "geometry": { "type": "Point", "coordinates": [ 28.072549977599301, -12.631337812655971 ] } },
{ "type": "Feature", "properties": { "agglosID": 2337.0, "agglosName": "Careysburg", "ISO3": "LBR", "Pop2015": 19376.0, "Sprawl": 1.498757985, "Elongation": 9.383931803 }, "geometry": { "type": "Point", "coordinates": [ -10.63064313960648, 6.375115570855616 ] } },
{ "type": "Feature", "properties": { "agglosID": 2341.0, "agglosName": "Casablanca", "ISO3": "MAR", "Pop2015": 4182929.0, "Sprawl": null, "Elongation": null }, "geometry": { "type": "Point", "coordinates": [ -7.624896653847619, 33.556724211663656 ] } },
{ "type": "Feature", "properties": { "agglosID": 2333.0, "agglosName": "Cape town", "ISO3": "ZAF", "Pop2015": 3661684.0, "Sprawl": 0.570922684, "Elongation": 4.382536925 }, "geometry": { "type": "Point", "coordinates": [ 18.534421261522766, -33.968566423152055 ] } },
{ "type": "Feature", "properties": { "agglosID": 2276.0, "agglosName": "Butajira", "ISO3": "ETH", "Pop2015": 148717.0, "Sprawl": 1.674921416, "Elongation": 8.278676268 }, "geometry": { "type": "Point", "coordinates": [ 38.339625427400492, 8.078419376187448 ] } },
{ "type": "Feature", "properties": { "agglosID": 2268.0, "agglosName": "Kisumu/mbale/busia/sirari [uga] 2", "ISO3": "UGA", "Pop2015": 432228.0, "Sprawl": null, "Elongation": null }, "geometry": { "type": "Point", "coordinates": [ 34.045063632442762, 0.395054596650776 ] } },
{ "type": "Feature", "properties": { "agglosID": 2915.0, "agglosName": "Durban", "ISO3": "ZAF", "Pop2015": 3088935.0, "Sprawl": 0.806467798, "Elongation": 5.287708761 }, "geometry": { "type": "Point", "coordinates": [ 30.998158591716994, -29.857598687663554 ] } },
{ "type": "Feature", "properties": { "agglosID": 2918.0, "agglosName": "Dutse 1", "ISO3": "NGA", "Pop2015": 206887.0, "Sprawl": 1.105607452, "Elongation": 6.886149726 }, "geometry": { "type": "Point", "coordinates": [ 9.347048666700891, 11.69609965523361 ] } },
{ "type": "Feature", "properties": { "agglosID": 3119.0, "agglosName": "Enugu", "ISO3": "NGA", "Pop2015": 905042.0, "Sprawl": 0.644503136, "Elongation": 4.912584801 }, "geometry": { "type": "Point", "coordinates": [ 7.51153915719792, 6.437761824201968 ] } },
{ "type": "Feature", "properties": { "agglosID": 3135.0, "agglosName": "Errich", "ISO3": "MAR", "Pop2015": 26493.0, "Sprawl": null, "Elongation": null }, "geometry": { "type": "Point", "coordinates": [ -4.561226092650234, 32.263955045325375 ] } },
{ "type": "Feature", "properties": { "agglosID": 3094.0, "agglosName": "Embu", "ISO3": "KEN", "Pop2015": 2046897.0, "Sprawl": 2.100005072, "Elongation": 10.31866875 }, "geometry": { "type": "Point", "coordinates": [ 36.910148484558945, -0.667635362889694 ] } },
{ "type": "Feature", "properties": { "agglosID": 3054.0, "agglosName": "El khroub", "ISO3": "DZA", "Pop2015": 135992.0, "Sprawl": 0.764245243, "Elongation": 5.643400073 }, "geometry": { "type": "Point", "coordinates": [ 6.703667404134567, 36.257549080085823 ] } },
{ "type": "Feature", "properties": { "agglosID": 3070.0, "agglosName": "El oued", "ISO3": "DZA", "Pop2015": 328427.0, "Sprawl": 1.5821731, "Elongation": 11.36679357 }, "geometry": { "type": "Point", "coordinates": [ 6.8126153221318, 33.438654565200537 ] } },
{ "type": "Feature", "properties": { "agglosID": 3038.0, "agglosName": "El had", "ISO3": "DZA", "Pop2015": 66869.0, "Sprawl": 1.70969202, "Elongation": 10.72820644 }, "geometry": { "type": "Point", "coordinates": [ 4.694327338041576, 36.61487875904443 ] } },
{ "type": "Feature", "properties": { "agglosID": 3467.0, "agglosName": "George", "ISO3": "ZAF", "Pop2015": 171961.0, "Sprawl": 0.752080544, "Elongation": 4.331278791 }, "geometry": { "type": "Point", "coordinates": [ 22.472341479778173, -33.9813479302221 ] } },
{ "type": "Feature", "properties": { "agglosID": 3485.0, "agglosName": "Ghardaia", "ISO3": "DZA", "Pop2015": 191316.0, "Sprawl": 0.920391878, "Elongation": 7.34467035 }, "geometry": { "type": "Point", "coordinates": [ 3.644458836894944, 32.502956039595716 ] } },
{ "type": "Feature", "properties": { "agglosID": 3442.0, "agglosName": "Gbenga", "ISO3": "NGA", "Pop2015": 187560.0, "Sprawl": 0.905436093, "Elongation": 5.334678414 }, "geometry": { "type": "Point", "coordinates": [ 3.126487311388289, 6.67648903220786 ] } },
{ "type": "Feature", "properties": { "agglosID": 3634.0, "agglosName": "Guercif", "ISO3": "MAR", "Pop2015": 94078.0, "Sprawl": null, "Elongation": null }, "geometry": { "type": "Point", "coordinates": [ -3.35073385152031, 34.238358431415122 ] } },
{ "type": "Feature", "properties": { "agglosID": 3261.0, "agglosName": "Fonko", "ISO3": "ETH", "Pop2015": 58481.0, "Sprawl": 1.964269537, "Elongation": 13.40892773 }, "geometry": { "type": "Point", "coordinates": [ 37.962076920993368, 7.641553758774014 ] } },
{ "type": "Feature", "properties": { "agglosID": 3232.0, "agglosName": "Fes", "ISO3": "MAR", "Pop2015": 1174743.0, "Sprawl": null, "Elongation": null }, "geometry": { "type": "Point", "coordinates": [ -5.011453062041705, 33.986922318913926 ] } },
{ "type": "Feature", "properties": { "agglosID": 3234.0, "agglosName": "Fianarantsoa", "ISO3": "MDG", "Pop2015": 195962.0, "Sprawl": 0.628769337, "Elongation": 5.786551357 }, "geometry": { "type": "Point", "coordinates": [ 47.094083430971153, -21.445847805384865 ] } },
{ "type": "Feature", "properties": { "agglosID": 3165.0, "agglosName": "Evaton", "ISO3": "ZAF", "Pop2015": 784481.0, "Sprawl": 0.865451654, "Elongation": 6.737121785 }, "geometry": { "type": "Point", "coordinates": [ 27.848732932957788, -26.536507750039711 ] } },
{ "type": "Feature", "properties": { "agglosID": 3372.0, "agglosName": "Garagus", "ISO3": "EGY", "Pop2015": 91347.0, "Sprawl": 0.942482489, "Elongation": 5.851913815 }, "geometry": { "type": "Point", "coordinates": [ 32.757213297209233, 25.874124442219319 ] } },
{ "type": "Feature", "properties": { "agglosID": 3338.0, "agglosName": "Gamalakhe 2", "ISO3": "ZAF", "Pop2015": 53921.0, "Sprawl": 1.473249116, "Elongation": 6.748071617 }, "geometry": { "type": "Point", "coordinates": [ 30.360176522665732, -30.782275691119082 ] } },
{ "type": "Feature", "properties": { "agglosID": 3310.0, "agglosName": "Gaborone", "ISO3": "BWA", "Pop2015": 365444.0, "Sprawl": 0.837007219, "Elongation": 5.400599121 }, "geometry": { "type": "Point", "coordinates": [ 25.872141701724853, -24.621030985923852 ] } },
{ "type": "Feature", "properties": { "agglosID": 3280.0, "agglosName": "Freetown", "ISO3": "SLE", "Pop2015": 1456596.0, "Sprawl": null, "Elongation": null }, "geometry": { "type": "Point", "coordinates": [ -13.154570959127177, 8.394329706541491 ] } },
{ "type": "Feature", "properties": { "agglosID": 3276.0, "agglosName": "Fqih ben salah", "ISO3": "MAR", "Pop2015": 103662.0, "Sprawl": null, "Elongation": null }, "geometry": { "type": "Point", "coordinates": [ -6.681375271360015, 32.500987689228893 ] } },
{ "type": "Feature", "properties": { "agglosID": 8072.0, "agglosName": "Sidi slimane", "ISO3": "MAR", "Pop2015": 94218.0, "Sprawl": null, "Elongation": null }, "geometry": { "type": "Point", "coordinates": [ -5.925268851412391, 34.27504663542144 ] } },
{ "type": "Feature", "properties": { "agglosID": 8073.0, "agglosName": "Sidi slimane charaa", "ISO3": "MAR", "Pop2015": 30835.0, "Sprawl": null, "Elongation": null }, "geometry": { "type": "Point", "coordinates": [ -2.358465395821442, 34.904164405176004 ] } },
{ "type": "Feature", "properties": { "agglosID": 43.0, "agglosName": "Abocho (2015)", "ISO3": "NGA", "Pop2015": 24647.0, "Sprawl": null, "Elongation": null }, "geometry": { "type": "Point", "coordinates": [ 3.036303328645933, 6.485730070960095 ] } },
{ "type": "Feature", "properties": { "agglosID": 8043.0, "agglosName": "Sidi amar", "ISO3": "DZA", "Pop2015": 102481.0, "Sprawl": 1.131073463, "Elongation": 5.902376068 }, "geometry": { "type": "Point", "coordinates": [ 7.712041833942378, 36.807880135552502 ] } },
{ "type": "Feature", "properties": { "agglosID": 17.0, "agglosName": "Abakaliki", "ISO3": "NGA", "Pop2015": 354397.0, "Sprawl": 0.891460209, "Elongation": 7.97007597 }, "geometry": { "type": "Point", "coordinates": [ 8.093443138229064, 6.289207241738064 ] } },
{ "type": "Feature", "properties": { "agglosID": 9.0, "agglosName": "Aba", "ISO3": "NGA", "Pop2015": 1687158.0, "Sprawl": 0.788766395, "Elongation": 9.36893069 }, "geometry": { "type": "Point", "coordinates": [ 7.344691537072476, 5.223549562353085 ] } },
{ "type": "Feature", "properties": { "agglosID": 32.0, "agglosName": "Abidjan", "ISO3": "CIV", "Pop2015": 4717347.0, "Sprawl": 0.596235532, "Elongation": 4.225579658 }, "geometry": { "type": "Point", "coordinates": [ -3.958647276364483, 5.368065654077041 ] } },
{ "type": "Feature", "properties": { "agglosID": 8202.0, "agglosName": "Nondabuya", "ISO3": "ZAF", "Pop2015": 16656.0, "Sprawl": 2.541200013, "Elongation": 12.24276763 }, "geometry": { "type": "Point", "coordinates": [ 32.11702705464036, -27.446994577697978 ] } },
{ "type": "Feature", "properties": { "agglosID": 8144.0, "agglosName": "Sodo", "ISO3": "ETH", "Pop2015": 2261958.0, "Sprawl": 2.446478986, "Elongation": 15.58997953 }, "geometry": { "type": "Point", "coordinates": [ 37.630971241236622, 7.111770511343487 ] } },
{ "type": "Feature", "properties": { "agglosID": 7854.0, "agglosName": "Selouane", "ISO3": "MAR", "Pop2015": 60457.0, "Sprawl": null, "Elongation": null }, "geometry": { "type": "Point", "coordinates": [ -2.938942754441938, 35.07999256410254 ] } },
{ "type": "Feature", "properties": { "agglosID": 7791.0, "agglosName": "Sarabyum", "ISO3": "EGY", "Pop2015": 43502.0, "Sprawl": 1.037810666, "Elongation": 6.125378972 }, "geometry": { "type": "Point", "coordinates": [ 32.317988727639872, 30.475403064406919 ] } },
{ "type": "Feature", "properties": { "agglosID": 7777.0, "agglosName": "Soyo", "ISO3": "AGO", "Pop2015": 205943.0, "Sprawl": 0.698048517, "Elongation": 7.814317826 }, "geometry": { "type": "Point", "coordinates": [ 12.366778209840433, -6.179725337147492 ] } },
{ "type": "Feature", "properties": { "agglosID": 367.0, "agglosName": "Ait ourir", "ISO3": "MAR", "Pop2015": 67949.0, "Sprawl": null, "Elongation": null }, "geometry": { "type": "Point", "coordinates": [ -7.650996033618626, 31.565471067419814 ] } },
{ "type": "Feature", "properties": { "agglosID": 8587.0, "agglosName": "Touba", "ISO3": "SEN", "Pop2015": 872732.0, "Sprawl": 0.593569689, "Elongation": 3.87975765 }, "geometry": { "type": "Point", "coordinates": [ -15.89434810731964, 14.857713223870409 ] } },
{ "type": "Feature", "properties": { "agglosID": 526.0, "agglosName": "Qift", "ISO3": "EGY", "Pop2015": 160103.0, "Sprawl": 1.347250087, "Elongation": 9.571924899000001 }, "geometry": { "type": "Point", "coordinates": [ 32.792215278738709, 26.037806873118072 ] } },
{ "type": "Feature", "properties": { "agglosID": 8748.0, "agglosName": "Umm dawwanban", "ISO3": "SDN", "Pop2015": 56925.0, "Sprawl": 0.838753662, "Elongation": 8.232019848 }, "geometry": { "type": "Point", "coordinates": [ 32.834253486664593, 15.43825465213154 ] } },
{ "type": "Feature", "properties": { "agglosID": 8762.0, "agglosName": "Umuabi", "ISO3": "NGA", "Pop2015": 52888.0, "Sprawl": 1.372557909, "Elongation": 8.47633532 }, "geometry": { "type": "Point", "coordinates": [ 7.366001675681243, 6.273379437529282 ] } },
{ "type": "Feature", "properties": { "agglosID": 8737.0, "agglosName": "Umbumbulu", "ISO3": "ZAF", "Pop2015": 42460.0, "Sprawl": 1.66395306, "Elongation": 8.399545558 }, "geometry": { "type": "Point", "coordinates": [ 30.822433583975105, -30.141765933145926 ] } },
{ "type": "Feature", "properties": { "agglosID": 173.0, "agglosName": "Adeta", "ISO3": "TGO", "Pop2015": 32895.0, "Sprawl": 1.744210452, "Elongation": 11.73549083 }, "geometry": { "type": "Point", "coordinates": [ 0.736651496698781, 7.144748499999935 ] } },
{ "type": "Feature", "properties": { "agglosID": 8690.0, "agglosName": "Tutume", "ISO3": "BWA", "Pop2015": 18869.0, "Sprawl": null, "Elongation": null }, "geometry": { "type": "Point", "coordinates": [ 27.061844631659387, -20.514924187075707 ] } },
{ "type": "Feature", "properties": { "agglosID": 8366.0, "agglosName": "Tanjeh", "ISO3": "GMB", "Pop2015": 40004.0, "Sprawl": 1.981197347, "Elongation": 10.12276891 }, "geometry": { "type": "Point", "coordinates": [ -16.785619398698863, 13.316215486323074 ] } },
{ "type": "Feature", "properties": { "agglosID": 8386.0, "agglosName": "Tarhūna", "ISO3": "LBY", "Pop2015": 26025.0, "Sprawl": null, "Elongation": null }, "geometry": { "type": "Point", "coordinates": [ 13.637296984815785, 32.433000934601253 ] } },
{ "type": "Feature", "properties": { "agglosID": 8389.0, "agglosName": "Taroudannt", "ISO3": "MAR", "Pop2015": 81012.0, "Sprawl": null, "Elongation": null }, "geometry": { "type": "Point", "coordinates": [ -8.938932395122109, 30.46174183630588 ] } },
{ "type": "Feature", "properties": { "agglosID": 8382.0, "agglosName": "Tripoli", "ISO3": "LBY", "Pop2015": 1949325.0, "Sprawl": null, "Elongation": null }, "geometry": { "type": "Point", "coordinates": [ 13.193786529239095, 32.689775159491845 ] } },
{ "type": "Feature", "properties": { "agglosID": 302.0, "agglosName": "Ain arnat", "ISO3": "DZA", "Pop2015": 23472.0, "Sprawl": 0.946645538, "Elongation": 6.762702837 }, "geometry": { "type": "Point", "coordinates": [ 5.316621332154234, 36.17338837765196 ] } },
{ "type": "Feature", "properties": { "agglosID": 8324.0, "agglosName": "Tamale", "ISO3": "GHA", "Pop2015": 312881.0, "Sprawl": 0.586396614, "Elongation": 4.19840902 }, "geometry": { "type": "Point", "coordinates": [ -0.847721755410392, 9.42522106489249 ] } },
{ "type": "Feature", "properties": { "agglosID": 235.0, "agglosName": "Agadir", "ISO3": "MAR", "Pop2015": 978629.0, "Sprawl": null, "Elongation": null }, "geometry": { "type": "Point", "coordinates": [ -9.534575170445937, 30.366763589902952 ] } },
{ "type": "Feature", "properties": { "agglosID": 8283.0, "agglosName": "Chekfa", "ISO3": "DZA", "Pop2015": 156735.0, "Sprawl": 0.803147636, "Elongation": 6.239349013 }, "geometry": { "type": "Point", "coordinates": [ 5.881129704520546, 36.762307443963337 ] } },
{ "type": "Feature", "properties": { "agglosID": 8516.0, "agglosName": "Tinghir", "ISO3": "MAR", "Pop2015": 42502.0, "Sprawl": null, "Elongation": null }, "geometry": { "type": "Point", "coordinates": [ -5.535991176048896, 31.514356468453634 ] } },
{ "type": "Feature", "properties": { "agglosID": 8460.0, "agglosName": "Tétouan", "ISO3": "MAR", "Pop2015": 452555.0, "Sprawl": null, "Elongation": null }, "geometry": { "type": "Point", "coordinates": [ -5.349398645190423, 35.589721996372326 ] } },
{ "type": "Feature", "properties": { "agglosID": 8423.0, "agglosName": "Tebeldina", "ISO3": "SDN", "Pop2015": 43035.0, "Sprawl": null, "Elongation": null }, "geometry": { "type": "Point", "coordinates": [ 25.715069612612314, 12.655991287991302 ] } },
{ "type": "Feature", "properties": { "agglosID": 8404.0, "agglosName": "Taza", "ISO3": "MAR", "Pop2015": 149136.0, "Sprawl": null, "Elongation": null }, "geometry": { "type": "Point", "coordinates": [ -4.009039958069191, 34.21873845163249 ] } },
{ "type": "Feature", "properties": { "agglosID": 1068.0, "agglosName": "Al-sufr", "ISO3": "SDN", "Pop2015": 25704.0, "Sprawl": null, "Elongation": null }, "geometry": { "type": "Point", "coordinates": [ 33.545397538830223, 16.782037358164295 ] } },
{ "type": "Feature", "properties": { "agglosID": 9118.0, "agglosName": "Zalingey", "ISO3": "SDN", "Pop2015": 135500.0, "Sprawl": null, "Elongation": null }, "geometry": { "type": "Point", "coordinates": [ 23.463150796739104, 12.911565986579863 ] } },
{ "type": "Feature", "properties": { "agglosID": 9059.0, "agglosName": "Yaounde", "ISO3": "CMR", "Pop2015": 3901680.0, "Sprawl": null, "Elongation": null }, "geometry": { "type": "Point", "coordinates": [ 11.534436165575507, 3.931641170791011 ] } },
{ "type": "Feature", "properties": { "agglosID": 9052.0, "agglosName": "Yambio", "ISO3": "SSD", "Pop2015": 168900.0, "Sprawl": null, "Elongation": null }, "geometry": { "type": "Point", "coordinates": [ 28.487152231047322, 4.61298527194149 ] } },
{ "type": "Feature", "properties": { "agglosID": 9173.0, "agglosName": "Zlitan", "ISO3": "LBY", "Pop2015": 228922.0, "Sprawl": null, "Elongation": null }, "geometry": { "type": "Point", "coordinates": [ 14.558940830103651, 32.482432416051893 ] } },
{ "type": "Feature", "properties": { "agglosID": 631.0, "agglosName": "Alger", "ISO3": "DZA", "Pop2015": 3886202.0, "Sprawl": 0.873197823, "Elongation": 6.44874079 }, "geometry": { "type": "Point", "coordinates": [ 3.374985403884884, 36.680550602041194 ] } },
{ "type": "Feature", "properties": { "agglosID": 8808.0, "agglosName": "Uzebba", "ISO3": "NGA", "Pop2015": 57760.0, "Sprawl": 1.36287432, "Elongation": 8.764749712 }, "geometry": { "type": "Point", "coordinates": [ 5.899593041949198, 7.006474095257852 ] } },
{ "type": "Feature", "properties": { "agglosID": 8806.0, "agglosName": "Uyo", "ISO3": "NGA", "Pop2015": 2271025.0, "Sprawl": 1.478558494, "Elongation": 11.38369551 }, "geometry": { "type": "Point", "coordinates": [ 7.884822962007116, 5.067914815369902 ] } },
{ "type": "Feature", "properties": { "agglosID": 8794.0, "agglosName": "Ushapa", "ISO3": "NGA", "Pop2015": 51280.0, "Sprawl": 0.65990158, "Elongation": 6.120908125 }, "geometry": { "type": "Point", "coordinates": [ 7.409378155204559, 9.220631849376417 ] } },
{ "type": "Feature", "properties": { "agglosID": 8968.0, "agglosName": "Ariwara (wawa)", "ISO3": "COD", "Pop2015": 82000.0, "Sprawl": 0.517146504, "Elongation": 9.064491739 }, "geometry": { "type": "Point", "coordinates": [ 30.705172052956211, 3.125786822250469 ] } },
{ "type": "Feature", "properties": { "agglosID": 1470.0, "agglosName": "Bafoussam", "ISO3": "CMR", "Pop2015": 1146230.0, "Sprawl": null, "Elongation": null }, "geometry": { "type": "Point", "coordinates": [ 10.351222558498069, 5.427083632886099 ] } },
{ "type": "Feature", "properties": { "agglosID": 1440.0, "agglosName": "Bab berred", "ISO3": "MAR", "Pop2015": 26085.0, "Sprawl": null, "Elongation": null }, "geometry": { "type": "Point", "coordinates": [ -4.924840510548883, 34.99185935873075 ] } },
{ "type": "Feature", "properties": { "agglosID": 8957.0, "agglosName": "Warri", "ISO3": "NGA", "Pop2015": 585552.0, "Sprawl": 0.885454359, "Elongation": 5.593714974 }, "geometry": { "type": "Point", "coordinates": [ 5.758388901470475, 5.539560918105199 ] } },
{ "type": "Feature", "properties": { "agglosID": 1585.0, "agglosName": "Banghazi", "ISO3": "LBY", "Pop2015": 594255.0, "Sprawl": null, "Elongation": null }, "geometry": { "type": "Point", "coordinates": [ 20.109403817320953, 32.086225406515254 ] } },
{ "type": "Feature", "properties": { "agglosID": 1558.0, "agglosName": "Bamenda", "ISO3": "CMR", "Pop2015": 312337.0, "Sprawl": null, "Elongation": null }, "geometry": { "type": "Point", "coordinates": [ 10.189738115186888, 5.985785306852546 ] } },
{ "type": "Feature", "properties": { "agglosID": 1497.0, "agglosName": "Baia farta", "ISO3": "AGO", "Pop2015": 62241.0, "Sprawl": 1.130912179, "Elongation": 5.687465877 }, "geometry": { "type": "Point", "coordinates": [ 13.178986475397117, -12.618353202740531 ] } },
{ "type": "Feature", "properties": { "agglosID": 1150.0, "agglosName": "Amashangana", "ISO3": "ZAF", "Pop2015": 36800.0, "Sprawl": 1.693891092, "Elongation": 9.151109169 }, "geometry": { "type": "Point", "coordinates": [ 31.224216214443565, -24.751057622121177 ] } },
{ "type": "Feature", "properties": { "agglosID": 1350.0, "agglosName": "Asyut", "ISO3": "EGY", "Pop2015": 1345668.0, "Sprawl": 1.205213795, "Elongation": 9.220573542 }, "geometry": { "type": "Point", "coordinates": [ 31.151684603390031, 27.224378008478006 ] } },
{ "type": "Feature", "properties": { "agglosID": 1342.0, "agglosName": "Assilah", "ISO3": "MAR", "Pop2015": 31379.0, "Sprawl": null, "Elongation": null }, "geometry": { "type": "Point", "coordinates": [ -6.032399752935575, 35.466035064251386 ] } },
{ "type": "Feature", "properties": { "agglosID": 1235.0, "agglosName": "Antananarivo", "ISO3": "MDG", "Pop2015": 2500317.0, "Sprawl": 0.515974859, "Elongation": 6.092352052 }, "geometry": { "type": "Point", "coordinates": [ 47.530126143005461, -18.924554484128301 ] } },
{ "type": "Feature", "properties": { "agglosID": 1226.0, "agglosName": "Annaba", "ISO3": "DZA", "Pop2015": 396309.0, "Sprawl": 0.718870371, "Elongation": 5.16137753 }, "geometry": { "type": "Point", "coordinates": [ 7.738713907558409, 36.891683495768277 ] } },
{ "type": "Feature", "properties": { "agglosID": 1247.0, "agglosName": "Aourir", "ISO3": "MAR", "Pop2015": 36671.0, "Sprawl": null, "Elongation": null }, "geometry": { "type": "Point", "coordinates": [ -9.654163179269423, 30.506898739917666 ] } },
{ "type": "Feature", "properties": { "agglosID": 5991.0, "agglosName": "Middelburg (steve tshwete)", "ISO3": "ZAF", "Pop2015": 55284.0, "Sprawl": null, "Elongation": null }, "geometry": { "type": "Point", "coordinates": [ 29.45716799299781, -25.777927331512664 ] } },
{ "type": "Feature", "properties": { "agglosID": 6207.0, "agglosName": "Molepolole", "ISO3": "BWA", "Pop2015": 71138.0, "Sprawl": null, "Elongation": null }, "geometry": { "type": "Point", "coordinates": [ 25.526397382482415, -24.388806458309453 ] } },
{ "type": "Feature", "properties": { "agglosID": 5778.0, "agglosName": "Masvingo south", "ISO3": "ZWE", "Pop2015": 92360.0, "Sprawl": 0.945038119, "Elongation": 4.485118492 }, "geometry": { "type": "Point", "coordinates": [ 30.830104038811026, -20.072896075043044 ] } },
{ "type": "Feature", "properties": { "agglosID": 5753.0, "agglosName": "Maseru", "ISO3": "LSO", "Pop2015": 306902.0, "Sprawl": 0.908949545, "Elongation": 5.752307176 }, "geometry": { "type": "Point", "coordinates": [ 27.506564740970877, -29.361119763398925 ] } },
{ "type": "Feature", "properties": { "agglosID": 5732.0, "agglosName": "Marondera", "ISO3": "ZWE", "Pop2015": 67296.0, "Sprawl": 1.267956003, "Elongation": 6.782141046 }, "geometry": { "type": "Point", "coordinates": [ 31.532421907138342, -18.206751821160033 ] } },
{ "type": "Feature", "properties": { "agglosID": 5733.0, "agglosName": "Maroua", "ISO3": "CMR", "Pop2015": 240888.0, "Sprawl": null, "Elongation": null }, "geometry": { "type": "Point", "coordinates": [ 14.306323634087175, 10.590930840250223 ] } },
{ "type": "Feature", "properties": { "agglosID": 5922.0, "agglosName": "Meknes", "ISO3": "MAR", "Pop2015": 629519.0, "Sprawl": null, "Elongation": null }, "geometry": { "type": "Point", "coordinates": [ -5.564658618319521, 33.874385524418322 ] } },
{ "type": "Feature", "properties": { "agglosID": 5880.0, "agglosName": "Mbour", "ISO3": "SEN", "Pop2015": 317009.0, "Sprawl": 0.675651351, "Elongation": 7.343713505 }, "geometry": { "type": "Point", "coordinates": [ -16.95916230407293, 14.428683194360339 ] } },
{ "type": "Feature", "properties": { "agglosID": 5882.0, "agglosName": "Mbuji-mayi", "ISO3": "COD", "Pop2015": 901000.0, "Sprawl": 0.760808571, "Elongation": 10.2064255 }, "geometry": { "type": "Point", "coordinates": [ 23.732118294068236, -6.168947144078203 ] } },
{ "type": "Feature", "properties": { "agglosID": 5845.0, "agglosName": "Kisumu/mbale/busia/sirari [uga] 1", "ISO3": "UGA", "Pop2015": 2228643.0, "Sprawl": 2.769995499, "Elongation": 16.17442645 }, "geometry": { "type": "Point", "coordinates": [ 34.245579461059123, 0.96378071245198 ] } },
{ "type": "Feature", "properties": { "agglosID": 6532.0, "agglosName": "Namibe", "ISO3": "AGO", "Pop2015": 263210.0, "Sprawl": 0.653732246, "Elongation": 4.395393132 }, "geometry": { "type": "Point", "coordinates": [ 12.182528000972727, -15.206069255828798 ] } },
{ "type": "Feature", "properties": { "agglosID": 6621.0, "agglosName": "Akpugo", "ISO3": "NGA", "Pop2015": 186318.0, "Sprawl": 1.482243302, "Elongation": 11.6232729 }, "geometry": { "type": "Point", "coordinates": [ 7.589796669871778, 6.34550203119372 ] } },
{ "type": "Feature", "properties": { "agglosID": 6289.0, "agglosName": "Mpika", "ISO3": "ZMB", "Pop2015": 49197.0, "Sprawl": 1.458841289, "Elongation": 7.921676866 }, "geometry": { "type": "Point", "coordinates": [ 31.45224191715711, -11.829335612149633 ] } },
{ "type": "Feature", "properties": { "agglosID": 6224.0, "agglosName": "Monrovia", "ISO3": "LBR", "Pop2015": 1190635.0, "Sprawl": 0.712408652, "Elongation": 6.444741473 }, "geometry": { "type": "Point", "coordinates": [ -10.754927804853351, 6.338518283379068 ] } },
{ "type": "Feature", "properties": { "agglosID": 6457.0, "agglosName": "Mwasabobmbwe", "ISO3": "ZMB", "Pop2015": 37665.0, "Sprawl": null, "Elongation": null }, "geometry": { "type": "Point", "coordinates": [ 28.750075911620552, -9.783943106082361 ] } },
{ "type": "Feature", "properties": { "agglosID": 6396.0, "agglosName": "Muramwiya", "ISO3": "BDI", "Pop2015": 95479.0, "Sprawl": null, "Elongation": null }, "geometry": { "type": "Point", "coordinates": [ 29.64818652166004, -3.312571685182196 ] } },
{ "type": "Feature", "properties": { "agglosID": 7092.0, "agglosName": "Ondjiva", "ISO3": "AGO", "Pop2015": 124575.0, "Sprawl": 0.928729341, "Elongation": 6.82138799 }, "geometry": { "type": "Point", "coordinates": [ 15.715732056551193, -17.072633333172956 ] } },
{ "type": "Feature", "properties": { "agglosID": 7110.0, "agglosName": "Oran", "ISO3": "DZA", "Pop2015": 1043424.0, "Sprawl": 0.589118554, "Elongation": 3.242096053 }, "geometry": { "type": "Point", "coordinates": [ -0.638751532527225, 35.683443075345018 ] } },
{ "type": "Feature", "properties": { "agglosID": 7098.0, "agglosName": "Onitsha", "ISO3": "NGA", "Pop2015": 8530514.0, "Sprawl": 1.271217715, "Elongation": 7.600808784 }, "geometry": { "type": "Point", "coordinates": [ 6.935997402488635, 5.814853327795356 ] } },
{ "type": "Feature", "properties": { "agglosID": 7063.0, "agglosName": "Okwuzi", "ISO3": "NGA", "Pop2015": 34843.0, "Sprawl": 0.86694679, "Elongation": 4.602158277 }, "geometry": { "type": "Point", "coordinates": [ 6.716442106512384, 5.485867378497948 ] } },
{ "type": "Feature", "properties": { "agglosID": 7000.0, "agglosName": "Oguma 2", "ISO3": "NGA", "Pop2015": 27897.0, "Sprawl": 1.206406225, "Elongation": 7.670231226 }, "geometry": { "type": "Point", "coordinates": [ 7.063568021014669, 7.877645132506151 ] } },
{ "type": "Feature", "properties": { "agglosID": 7201.0, "agglosName": "Ouled attia", "ISO3": "DZA", "Pop2015": 16226.0, "Sprawl": 0.790474431, "Elongation": 6.561862111 }, "geometry": { "type": "Point", "coordinates": [ 3.678946783054204, 35.147717788627766 ] } },
{ "type": "Feature", "properties": { "agglosID": 7191.0, "agglosName": "Oujda", "ISO3": "MAR", "Pop2015": 516125.0, "Sprawl": null, "Elongation": null }, "geometry": { "type": "Point", "coordinates": [ -1.902226331129285, 34.7029503484858 ] } },
{ "type": "Feature", "properties": { "agglosID": 7132.0, "agglosName": "Osogbo", "ISO3": "NGA", "Pop2015": 763544.0, "Sprawl": 0.78016632, "Elongation": 4.39168423 }, "geometry": { "type": "Point", "coordinates": [ 4.534735076037324, 7.783744405476682 ] } },
{ "type": "Feature", "properties": { "agglosID": 9203.0, "agglosName": "Zweletemba", "ISO3": "ZAF", "Pop2015": 18166.0, "Sprawl": null, "Elongation": null }, "geometry": { "type": "Point", "coordinates": [ 19.494943985765588, -33.644973183545879 ] } },
{ "type": "Feature", "properties": { "agglosID": 9202.0, "agglosName": "Zwedru", "ISO3": "LBR", "Pop2015": 29189.0, "Sprawl": null, "Elongation": null }, "geometry": { "type": "Point", "coordinates": [ -8.137889919891588, 6.064662076845418 ] } },
{ "type": "Feature", "properties": { "agglosID": 9200.0, "agglosName": "Zwaneville", "ISO3": "ZAF", "Pop2015": 26395.0, "Sprawl": null, "Elongation": null }, "geometry": { "type": "Point", "coordinates": [ 27.768793646089435, -26.197729063892673 ] } },
{ "type": "Feature", "properties": { "agglosID": 9199.0, "agglosName": "Platinum mine", "ISO3": "ZWE", "Pop2015": 47300.0, "Sprawl": 0.839551815, "Elongation": 4.956964527 }, "geometry": { "type": "Point", "coordinates": [ 30.058102063865388, -20.303320351976993 ] } },
{ "type": "Feature", "properties": { "agglosID": 9198.0, "agglosName": "Zuwara", "ISO3": "LBY", "Pop2015": 26854.0, "Sprawl": null, "Elongation": null }, "geometry": { "type": "Point", "coordinates": [ 12.088775326074902, 32.926611034912298 ] } },
{ "type": "Feature", "properties": { "agglosID": 9197.0, "agglosName": "Zuru", "ISO3": "NGA", "Pop2015": 122854.0, "Sprawl": 0.57767312, "Elongation": 8.700625067000001 }, "geometry": { "type": "Point", "coordinates": [ 5.243873812063532, 11.426615752609697 ] } },
{ "type": "Feature", "properties": { "agglosID": 9196.0, "agglosName": "Zurqa", "ISO3": "SDN", "Pop2015": 11165.0, "Sprawl": null, "Elongation": null }, "geometry": { "type": "Point", "coordinates": [ 33.515442993200722, 14.944840901715745 ] } },
{ "type": "Feature", "properties": { "agglosID": 9195.0, "agglosName": "Zurmi", "ISO3": "NGA", "Pop2015": 23760.0, "Sprawl": null, "Elongation": null }, "geometry": { "type": "Point", "coordinates": [ 6.773593316794656, 12.782904283340535 ] } },
{ "type": "Feature", "properties": { "agglosID": 9194.0, "agglosName": "Zur abu al-layl", "ISO3": "EGY", "Pop2015": 19534.0, "Sprawl": 0.567954953, "Elongation": 4.089317935 }, "geometry": { "type": "Point", "coordinates": [ 31.761776079644807, 30.923102600935543 ] } },
{ "type": "Feature", "properties": { "agglosID": 9193.0, "agglosName": "Zungeru", "ISO3": "NGA", "Pop2015": 16342.0, "Sprawl": 0.551138666, "Elongation": 4.2957294 }, "geometry": { "type": "Point", "coordinates": [ 6.153423293341033, 9.808283613111621 ] } },
{ "type": "Feature", "properties": { "agglosID": 9192.0, "agglosName": "Zuguma", "ISO3": "NGA", "Pop2015": 22014.0, "Sprawl": 0.978505345, "Elongation": 6.605536693 }, "geometry": { "type": "Point", "coordinates": [ 4.96672719382212, 9.458962564847825 ] } },
{ "type": "Feature", "properties": { "agglosID": 9191.0, "agglosName": "Zuenoufla", "ISO3": "CIV", "Pop2015": 34960.0, "Sprawl": 0.435951347, "Elongation": 4.638688876 }, "geometry": { "type": "Point", "coordinates": [ -6.04851905689612, 7.425848148074239 ] } },
{ "type": "Feature", "properties": { "agglosID": 9190.0, "agglosName": "Zuarungu daboro", "ISO3": "GHA", "Pop2015": 12544.0, "Sprawl": null, "Elongation": null }, "geometry": { "type": "Point", "coordinates": [ -0.799183828305379, 10.777395855257662 ] } },
{ "type": "Feature", "properties": { "agglosID": 9188.0, "agglosName": "Zoula", "ISO3": "BFA", "Pop2015": 10981.0, "Sprawl": 2.929884725, "Elongation": 14.45169094 }, "geometry": { "type": "Point", "coordinates": [ -2.461756118143575, 12.252370745597995 ] } },
{ "type": "Feature", "properties": { "agglosID": 9187.0, "agglosName": "Zoukougbeu", "ISO3": "CIV", "Pop2015": 16767.0, "Sprawl": 0.771661668, "Elongation": 5.96031386 }, "geometry": { "type": "Point", "coordinates": [ -6.862757575597984, 6.76417731216258 ] } },
{ "type": "Feature", "properties": { "agglosID": 9186.0, "agglosName": "Zoueiratt", "ISO3": "MRT", "Pop2015": 47188.0, "Sprawl": null, "Elongation": null }, "geometry": { "type": "Point", "coordinates": [ -12.46572236564878, 22.738674400272036 ] } },
{ "type": "Feature", "properties": { "agglosID": 9185.0, "agglosName": "Zouan-hounien", "ISO3": "CIV", "Pop2015": 23506.0, "Sprawl": 0.684254325, "Elongation": 5.04128571 }, "geometry": { "type": "Point", "coordinates": [ -8.20936144587945, 6.919345536224088 ] } },
{ "type": "Feature", "properties": { "agglosID": 9184.0, "agglosName": "Zouan", "ISO3": "CIV", "Pop2015": 10206.0, "Sprawl": null, "Elongation": null }, "geometry": { "type": "Point", "coordinates": [ -7.599912319624126, 6.543514176045438 ] } },
{ "type": "Feature", "properties": { "agglosID": 9183.0, "agglosName": "Zou", "ISO3": "CIV", "Pop2015": 19987.0, "Sprawl": null, "Elongation": null }, "geometry": { "type": "Point", "coordinates": [ -7.799077921481441, 6.975546611274435 ] } },
{ "type": "Feature", "properties": { "agglosID": 9182.0, "agglosName": "Zorgho", "ISO3": "BFA", "Pop2015": 25484.0, "Sprawl": null, "Elongation": null }, "geometry": { "type": "Point", "coordinates": [ -0.623492785305699, 12.248898023747223 ] } },
{ "type": "Feature", "properties": { "agglosID": 9181.0, "agglosName": "Zonkwa", "ISO3": "NGA", "Pop2015": 34476.0, "Sprawl": 1.314118796, "Elongation": 7.312853203 }, "geometry": { "type": "Point", "coordinates": [ 8.298891268321677, 9.783316192371768 ] } },
{ "type": "Feature", "properties": { "agglosID": 9180.0, "agglosName": "Zonkizizwe", "ISO3": "ZAF", "Pop2015": 37020.0, "Sprawl": 0.681021741, "Elongation": 4.476536558 }, "geometry": { "type": "Point", "coordinates": [ 28.183081544707655, -26.411932297811337 ] } },
{ "type": "Feature", "properties": { "agglosID": 9179.0, "agglosName": "Zongo", "ISO3": "COD", "Pop2015": 39500.0, "Sprawl": 0.744983116, "Elongation": 6.088666875 }, "geometry": { "type": "Point", "coordinates": [ 18.593092428200535, 4.341858749029999 ] } },
{ "type": "Feature", "properties": { "agglosID": 9178.0, "agglosName": "Zombo", "ISO3": "UGA", "Pop2015": 12718.0, "Sprawl": 2.325311878, "Elongation": 13.57725047 }, "geometry": { "type": "Point", "coordinates": [ 30.909348967546869, 2.512833150656021 ] } },
{ "type": "Feature", "properties": { "agglosID": 9177.0, "agglosName": "Zomba", "ISO3": "MWI", "Pop2015": 283884.0, "Sprawl": 1.546121478, "Elongation": 14.56679805 }, "geometry": { "type": "Point", "coordinates": [ 35.337742361804715, -15.370301305713099 ] } },
{ "type": "Feature", "properties": { "agglosID": 9172.0, "agglosName": "Zitouna", "ISO3": "DZA", "Pop2015": 10178.0, "Sprawl": 0.817508087, "Elongation": 8.067617579 }, "geometry": { "type": "Point", "coordinates": [ 6.459837766140728, 36.988362827325986 ] } },
{ "type": "Feature", "properties": { "agglosID": 9171.0, "agglosName": "Zithobeni", "ISO3": "ZAF", "Pop2015": 24321.0, "Sprawl": 0.78837746, "Elongation": 3.583153946 }, "geometry": { "type": "Point", "coordinates": [ 28.724871890372654, -25.78141825474065 ] } },
{ "type": "Feature", "properties": { "agglosID": 9170.0, "agglosName": "Ziniare", "ISO3": "BFA", "Pop2015": 23461.0, "Sprawl": null, "Elongation": null }, "geometry": { "type": "Point", "coordinates": [ -1.297036518440561, 12.598941672419187 ] } },
{ "type": "Feature", "properties": { "agglosID": 9168.0, "agglosName": "Zing", "ISO3": "NGA", "Pop2015": 57279.0, "Sprawl": 0.635022876, "Elongation": 7.094694763 }, "geometry": { "type": "Point", "coordinates": [ 11.755053661954246, 8.989126824475729 ] } },
{ "type": "Feature", "properties": { "agglosID": 9167.0, "agglosName": "Zinder", "ISO3": "NER", "Pop2015": 260268.0, "Sprawl": 0.530559183, "Elongation": 4.351548549 }, "geometry": { "type": "Point", "coordinates": [ 8.980082850112947, 13.812148985525571 ] } },
{ "type": "Feature", "properties": { "agglosID": 9166.0, "agglosName": "Zinara", "ISO3": "EGY", "Pop2015": 61481.0, "Sprawl": 1.071935143, "Elongation": 5.767314067 }, "geometry": { "type": "Point", "coordinates": [ 31.007372863479006, 30.6600027097709 ] } },
{ "type": "Feature", "properties": { "agglosID": 9164.0, "agglosName": "Ziguinchor", "ISO3": "SEN", "Pop2015": 214936.0, "Sprawl": 0.577325361, "Elongation": 3.341352092 }, "geometry": { "type": "Point", "coordinates": [ -16.288838881403699, 12.558121276695651 ] } },
{ "type": "Feature", "properties": { "agglosID": 9163.0, "agglosName": "Zighoud youcef", "ISO3": "DZA", "Pop2015": 31320.0, "Sprawl": 0.519557155, "Elongation": 5.426343935 }, "geometry": { "type": "Point", "coordinates": [ 6.699342916813187, 36.536712191788425 ] } },
{ "type": "Feature", "properties": { "agglosID": 9162.0, "agglosName": "Zeway/batu", "ISO3": "ETH", "Pop2015": 86784.0, "Sprawl": 0.597081894, "Elongation": 10.65695609 }, "geometry": { "type": "Point", "coordinates": [ 38.719726306680641, 7.967288680159639 ] } },
{ "type": "Feature", "properties": { "agglosID": 9161.0, "agglosName": "Zeribet el oued", "ISO3": "DZA", "Pop2015": 20712.0, "Sprawl": 0.525216711, "Elongation": 4.127706011 }, "geometry": { "type": "Point", "coordinates": [ 6.505020703210751, 34.682768095445127 ] } },
{ "type": "Feature", "properties": { "agglosID": 9160.0, "agglosName": "Zeramdine", "ISO3": "TUN", "Pop2015": 16909.0, "Sprawl": 0.400083503, "Elongation": 4.095585365 }, "geometry": { "type": "Point", "coordinates": [ 10.727875890946395, 35.574137138402222 ] } },
{ "type": "Feature", "properties": { "agglosID": 9158.0, "agglosName": "Zengu", "ISO3": "COD", "Pop2015": 19900.0, "Sprawl": 2.327324942, "Elongation": 14.97406918 }, "geometry": { "type": "Point", "coordinates": [ 30.987355762854953, 2.208066490946701 ] } },
{ "type": "Feature", "properties": { "agglosID": 9157.0, "agglosName": "Zemmouri", "ISO3": "DZA", "Pop2015": 15173.0, "Sprawl": 0.63062856, "Elongation": 3.59398877 }, "geometry": { "type": "Point", "coordinates": [ 3.598908766946322, 36.786771912760685 ] } },
{ "type": "Feature", "properties": { "agglosID": 9156.0, "agglosName": "Zemmoura", "ISO3": "DZA", "Pop2015": 27014.0, "Sprawl": 0.501726593, "Elongation": 3.644441338 }, "geometry": { "type": "Point", "coordinates": [ 0.753854892111602, 35.725577672962139 ] } },
{ "type": "Feature", "properties": { "agglosID": 9155.0, "agglosName": "Zémio", "ISO3": "CAF", "Pop2015": 12282.0, "Sprawl": 1.677810618, "Elongation": 14.2045819 }, "geometry": { "type": "Point", "coordinates": [ 25.139159993666802, 5.032312985547701 ] } },
{ "type": "Feature", "properties": { "agglosID": 9154.0, "agglosName": "Zemamra", "ISO3": "MAR", "Pop2015": 13389.0, "Sprawl": null, "Elongation": null }, "geometry": { "type": "Point", "coordinates": [ -8.706062665342094, 32.620943934161517 ] } },
{ "type": "Feature", "properties": { "agglosID": 9153.0, "agglosName": "Zelfana", "ISO3": "DZA", "Pop2015": 14731.0, "Sprawl": 0.563971468, "Elongation": 3.818388619 }, "geometry": { "type": "Point", "coordinates": [ 4.225453390528008, 32.395018492555295 ] } },
{ "type": "Feature", "properties": { "agglosID": 9151.0, "agglosName": "Zegoua", "ISO3": "MLI", "Pop2015": 25139.0, "Sprawl": null, "Elongation": null }, "geometry": { "type": "Point", "coordinates": [ -5.653450505310686, 10.489003267803271 ] } },
{ "type": "Feature", "properties": { "agglosID": 9149.0, "agglosName": "Zeghaia", "ISO3": "DZA", "Pop2015": 15743.0, "Sprawl": 0.747335386, "Elongation": 5.490693354 }, "geometry": { "type": "Point", "coordinates": [ 6.17591401817212, 36.471462799024387 ] } },
{ "type": "Feature", "properties": { "agglosID": 9148.0, "agglosName": "Zeboudja", "ISO3": "DZA", "Pop2015": 10462.0, "Sprawl": 0.683395864, "Elongation": 4.397642829 }, "geometry": { "type": "Point", "coordinates": [ 1.425605947482471, 36.356003567743365 ] } },
{ "type": "Feature", "properties": { "agglosID": 9147.0, "agglosName": "Zebediela", "ISO3": "ZAF", "Pop2015": 28448.0, "Sprawl": 1.447832798, "Elongation": 7.379816415 }, "geometry": { "type": "Point", "coordinates": [ 29.299758253159879, -24.358668022460307 ] } },
{ "type": "Feature", "properties": { "agglosID": 9146.0, "agglosName": "Zeaglo", "ISO3": "CIV", "Pop2015": 12584.0, "Sprawl": 0.928292329, "Elongation": 4.92813935 }, "geometry": { "type": "Point", "coordinates": [ -7.834905058531383, 6.552849498338487 ] } },
{ "type": "Feature", "properties": { "agglosID": 9145.0, "agglosName": "Zayyan", "ISO3": "EGY", "Pop2015": 11051.0, "Sprawl": 0.384153253, "Elongation": 4.743262648 }, "geometry": { "type": "Point", "coordinates": [ 31.501931312191456, 31.401527448818392 ] } },
{ "type": "Feature", "properties": { "agglosID": 9144.0, "agglosName": "Zayd", "ISO3": "EGY", "Pop2015": 12669.0, "Sprawl": null, "Elongation": null }, "geometry": { "type": "Point", "coordinates": [ 30.708157439143907, 29.359249314483748 ] } },
{ "type": "Feature", "properties": { "agglosID": 9143.0, "agglosName": "Zawiyyat sultan", "ISO3": "EGY", "Pop2015": 23134.0, "Sprawl": 0.808476822, "Elongation": 5.812362594 }, "geometry": { "type": "Point", "coordinates": [ 30.820755187040092, 28.073185122997327 ] } },
{ "type": "Feature", "properties": { "agglosID": 9142.0, "agglosName": "Zawiyyat saqr", "ISO3": "EGY", "Pop2015": 31287.0, "Sprawl": null, "Elongation": null }, "geometry": { "type": "Point", "coordinates": [ 30.202010025203656, 30.930721705398117 ] } },
{ "type": "Feature", "properties": { "agglosID": 9140.0, "agglosName": "Zawiyyat humur", "ISO3": "EGY", "Pop2015": 33395.0, "Sprawl": 1.967750507, "Elongation": 11.3898101 }, "geometry": { "type": "Point", "coordinates": [ 30.46130857346698, 30.877046335510101 ] } },
{ "type": "Feature", "properties": { "agglosID": 9139.0, "agglosName": "Zawiyyat al-nawiya", "ISO3": "EGY", "Pop2015": 13320.0, "Sprawl": null, "Elongation": null }, "geometry": { "type": "Point", "coordinates": [ 30.874013514127618, 28.921518799701992 ] } },
{ "type": "Feature", "properties": { "agglosID": 9137.0, "agglosName": "Zawiyyat al-maslub", "ISO3": "EGY", "Pop2015": 19309.0, "Sprawl": null, "Elongation": null }, "geometry": { "type": "Point", "coordinates": [ 31.201676504229656, 29.303059074904343 ] } },
{ "type": "Feature", "properties": { "agglosID": 9135.0, "agglosName": "Zawiyyat al-baqli", "ISO3": "EGY", "Pop2015": 12443.0, "Sprawl": 0.366853963, "Elongation": 5.285412022 }, "geometry": { "type": "Point", "coordinates": [ 30.805788387411354, 30.622868207228588 ] } },
{ "type": "Feature", "properties": { "agglosID": 9133.0, "agglosName": "Zauro", "ISO3": "NGA", "Pop2015": 14634.0, "Sprawl": 0.460384965, "Elongation": 3.831065493 }, "geometry": { "type": "Point", "coordinates": [ 4.306717648698872, 12.501210458150402 ] } },
{ "type": "Feature", "properties": { "agglosID": 9131.0, "agglosName": "Zarzis", "ISO3": "TUN", "Pop2015": 72820.0, "Sprawl": null, "Elongation": null }, "geometry": { "type": "Point", "coordinates": [ 11.09574774262358, 33.533725717696001 ] } },
{ "type": "Feature", "properties": { "agglosID": 9129.0, "agglosName": "Zaria", "ISO3": "NGA", "Pop2015": 796340.0, "Sprawl": 0.600320755, "Elongation": 4.307986196 }, "geometry": { "type": "Point", "coordinates": [ 7.726924821055746, 11.105669367695818 ] } },
{ "type": "Feature", "properties": { "agglosID": 9127.0, "agglosName": "Zarafah", "ISO3": "SDN", "Pop2015": 33150.0, "Sprawl": null, "Elongation": null }, "geometry": { "type": "Point", "coordinates": [ 25.71103927512431, 11.676206790989301 ] } },
{ "type": "Feature", "properties": { "agglosID": 9126.0, "agglosName": "Zaouiat cheikh", "ISO3": "MAR", "Pop2015": 25600.0, "Sprawl": null, "Elongation": null }, "geometry": { "type": "Point", "coordinates": [ -5.917255304807457, 32.643232425745012 ] } },
{ "type": "Feature", "properties": { "agglosID": 9125.0, "agglosName": "Zanzibar", "ISO3": "TZA", "Pop2015": 733039.0, "Sprawl": 0.569779269, "Elongation": 7.500892187 }, "geometry": { "type": "Point", "coordinates": [ 39.222397008147482, -6.113274773961921 ] } },
{ "type": "Feature", "properties": { "agglosID": 9124.0, "agglosName": "Zango", "ISO3": "NGA", "Pop2015": 26582.0, "Sprawl": 0.47686553, "Elongation": 3.876286548 }, "geometry": { "type": "Point", "coordinates": [ 8.482881058642565, 13.053918110572402 ] } },
{ "type": "Feature", "properties": { "agglosID": 9123.0, "agglosName": "Zandan nagogo", "ISO3": "NGA", "Pop2015": 11088.0, "Sprawl": 0.439934772, "Elongation": 5.587768937 }, "geometry": { "type": "Point", "coordinates": [ 9.849581103584388, 11.328371575063674 ] } },
{ "type": "Feature", "properties": { "agglosID": 9122.0, "agglosName": "Diba dunqula (zamzam)", "ISO3": "SDN", "Pop2015": 56316.0, "Sprawl": null, "Elongation": null }, "geometry": { "type": "Point", "coordinates": [ 25.294384751760429, 13.489872566820395 ] } },
{ "type": "Feature", "properties": { "agglosID": 9121.0, "agglosName": "Zambezi", "ISO3": "ZMB", "Pop2015": 23769.0, "Sprawl": 1.681944984, "Elongation": 14.02985535 }, "geometry": { "type": "Point", "coordinates": [ 23.115038658678834, -13.553992206752927 ] } },
{ "type": "Feature", "properties": { "agglosID": 9120.0, "agglosName": "Zaltan", "ISO3": "LBY", "Pop2015": 15370.0, "Sprawl": null, "Elongation": null }, "geometry": { "type": "Point", "coordinates": [ 11.862698326527712, 32.948677008053906 ] } },
{ "type": "Feature", "properties": { "agglosID": 9119.0, "agglosName": "Zaliohouan", "ISO3": "CIV", "Pop2015": 21445.0, "Sprawl": 0.640854379, "Elongation": 4.596390351 }, "geometry": { "type": "Point", "coordinates": [ -6.23727690840754, 6.794914073477967 ] } },
{ "type": "Feature", "properties": { "agglosID": 9116.0, "agglosName": "Zaku", "ISO3": "NGA", "Pop2015": 19604.0, "Sprawl": 1.747663181, "Elongation": 12.02260973 }, "geometry": { "type": "Point", "coordinates": [ 8.316204683289804, 9.6559697605392 ] } },
{ "type": "Feature", "properties": { "agglosID": 9115.0, "agglosName": "Zakirai", "ISO3": "NGA", "Pop2015": 13288.0, "Sprawl": 0.497301045, "Elongation": 3.683526737 }, "geometry": { "type": "Point", "coordinates": [ 8.885656834114876, 12.100160629811574 ] } },
{ "type": "Feature", "properties": { "agglosID": 9114.0, "agglosName": "Zaki biam", "ISO3": "NGA", "Pop2015": 160857.0, "Sprawl": 0.783838722, "Elongation": 9.813058699000001 }, "geometry": { "type": "Point", "coordinates": [ 9.602900260610188, 7.511759122106332 ] } },
{ "type": "Feature", "properties": { "agglosID": 9113.0, "agglosName": "Zakariya park", "ISO3": "ZAF", "Pop2015": 16313.0, "Sprawl": null, "Elongation": null }, "geometry": { "type": "Point", "coordinates": [ 27.877613116348769, -26.379290862586586 ] } },
{ "type": "Feature", "properties": { "agglosID": 9112.0, "agglosName": "Zaio", "ISO3": "MAR", "Pop2015": 36298.0, "Sprawl": null, "Elongation": null }, "geometry": { "type": "Point", "coordinates": [ -2.724177506551037, 34.937496164773677 ] } },
{ "type": "Feature", "properties": { "agglosID": 9109.0, "agglosName": "Zahana", "ISO3": "DZA", "Pop2015": 11490.0, "Sprawl": 0.347154085, "Elongation": 2.421522979 }, "geometry": { "type": "Point", "coordinates": [ -0.412141095575327, 35.516768122104637 ] } },
{ "type": "Feature", "properties": { "agglosID": 9108.0, "agglosName": "Zaguieta", "ISO3": "CIV", "Pop2015": 10061.0, "Sprawl": 0.816083178, "Elongation": 5.153068598 }, "geometry": { "type": "Point", "coordinates": [ -6.06263311157758, 6.787835454508949 ] } },
{ "type": "Feature", "properties": { "agglosID": 9106.0, "agglosName": "Zagora", "ISO3": "MAR", "Pop2015": 40488.0, "Sprawl": null, "Elongation": null }, "geometry": { "type": "Point", "coordinates": [ -5.842861249704955, 30.34713656530365 ] } },
{ "type": "Feature", "properties": { "agglosID": 9105.0, "agglosName": "Zagne", "ISO3": "CIV", "Pop2015": 50217.0, "Sprawl": null, "Elongation": null }, "geometry": { "type": "Point", "coordinates": [ -7.48475477054385, 6.213498294946316 ] } },
{ "type": "Feature", "properties": { "agglosID": 9104.0, "agglosName": "Zaghouan", "ISO3": "TUN", "Pop2015": 21457.0, "Sprawl": 0.601262394, "Elongation": 5.843254712 }, "geometry": { "type": "Point", "coordinates": [ 10.143387402095417, 36.40707485267167 ] } },
{ "type": "Feature", "properties": { "agglosID": 9103.0, "agglosName": "Zagga", "ISO3": "NGA", "Pop2015": 16697.0, "Sprawl": 0.476932954, "Elongation": 5.338969928 }, "geometry": { "type": "Point", "coordinates": [ 4.124301796871768, 11.565047616142387 ] } },
{ "type": "Feature", "properties": { "agglosID": 9102.0, "agglosName": "Zafar", "ISO3": "EGY", "Pop2015": 18262.0, "Sprawl": 0.391630679, "Elongation": 2.426648943 }, "geometry": { "type": "Point", "coordinates": [ 31.613868131012794, 30.975593282669109 ] } },
{ "type": "Feature", "properties": { "agglosID": 9101.0, "agglosName": "Zabzugu", "ISO3": "GHA", "Pop2015": 24979.0, "Sprawl": 0.40901674, "Elongation": 5.291171326 }, "geometry": { "type": "Point", "coordinates": [ 0.367570235619941, 9.29292614713609 ] } },
{ "type": "Feature", "properties": { "agglosID": 9100.0, "agglosName": "Zabre", "ISO3": "BFA", "Pop2015": 18674.0, "Sprawl": 1.085062911, "Elongation": 5.524431274 }, "geometry": { "type": "Point", "coordinates": [ -0.631057035648908, 11.183621992617361 ] } },
{ "type": "Feature", "properties": { "agglosID": 9174.0, "agglosName": "Z'malet el emir a.e.k.", "ISO3": "DZA", "Pop2015": 14831.0, "Sprawl": 0.814903601, "Elongation": 7.262835452 }, "geometry": { "type": "Point", "coordinates": [ 2.316502590829307, 34.901503151312653 ] } },
{ "type": "Feature", "properties": { "agglosID": 9099.0, "agglosName": "Yusufari", "ISO3": "NGA", "Pop2015": 16160.0, "Sprawl": 0.728309063, "Elongation": 4.568730887 }, "geometry": { "type": "Point", "coordinates": [ 11.174348900949838, 13.066065646481865 ] } },
{ "type": "Feature", "properties": { "agglosID": 9098.0, "agglosName": "Yumbi 2", "ISO3": "COD", "Pop2015": 18500.0, "Sprawl": null, "Elongation": null }, "geometry": { "type": "Point", "coordinates": [ 18.67478809301284, 3.228249286023813 ] } },
{ "type": "Feature", "properties": { "agglosID": 9097.0, "agglosName": "Yumbi 1", "ISO3": "COD", "Pop2015": 26900.0, "Sprawl": 0.95500413, "Elongation": 5.799344402 }, "geometry": { "type": "Point", "coordinates": [ 16.554762455526124, -1.902447033396997 ] } },
{ "type": "Feature", "properties": { "agglosID": 9096.0, "agglosName": "Yumbe", "ISO3": "UGA", "Pop2015": 155271.0, "Sprawl": null, "Elongation": null }, "geometry": { "type": "Point", "coordinates": [ 31.257280376145609, 3.449149536112821 ] } },
{ "type": "Feature", "properties": { "agglosID": 9095.0, "agglosName": "Yuki kengundu", "ISO3": "COD", "Pop2015": 13800.0, "Sprawl": null, "Elongation": null }, "geometry": { "type": "Point", "coordinates": [ 19.446607506742737, -3.942119684272483 ] } },
{ "type": "Feature", "properties": { "agglosID": 9094.0, "agglosName": "Youwarou hombolore", "ISO3": "MLI", "Pop2015": 12220.0, "Sprawl": null, "Elongation": null }, "geometry": { "type": "Point", "coordinates": [ -4.260581979447685, 15.378260833916329 ] } },
{ "type": "Feature", "properties": { "agglosID": 9093.0, "agglosName": "Youssoufia", "ISO3": "MAR", "Pop2015": 67867.0, "Sprawl": null, "Elongation": null }, "geometry": { "type": "Point", "coordinates": [ -8.526122974502876, 32.250404835955379 ] } },
{ "type": "Feature", "properties": { "agglosID": 9092.0, "agglosName": "Youb", "ISO3": "DZA", "Pop2015": 14713.0, "Sprawl": 0.276785828, "Elongation": 2.832767854 }, "geometry": { "type": "Point", "coordinates": [ -0.210131938013907, 34.921882029274073 ] } },
{ "type": "Feature", "properties": { "agglosID": 9091.0, "agglosName": "Yoro", "ISO3": "MLI", "Pop2015": 12259.0, "Sprawl": null, "Elongation": null }, "geometry": { "type": "Point", "coordinates": [ -2.136547960663147, 14.280027316369178 ] } },
{ "type": "Feature", "properties": { "agglosID": 9090.0, "agglosName": "Yonibana", "ISO3": "SLE", "Pop2015": 28829.0, "Sprawl": 0.679264098, "Elongation": 7.706270495 }, "geometry": { "type": "Point", "coordinates": [ -12.217798936989521, 8.463681577720058 ] } },
{ "type": "Feature", "properties": { "agglosID": 9089.0, "agglosName": "Yomou", "ISO3": "GIN", "Pop2015": 19165.0, "Sprawl": 0.708968502, "Elongation": 6.199577542 }, "geometry": { "type": "Point", "coordinates": [ -9.261994830384165, 7.570126691159406 ] } },
{ "type": "Feature", "properties": { "agglosID": 9086.0, "agglosName": "Yokadouma", "ISO3": "CMR", "Pop2015": 21932.0, "Sprawl": null, "Elongation": null }, "geometry": { "type": "Point", "coordinates": [ 15.052257008346677, 3.521977410404943 ] } },
{ "type": "Feature", "properties": { "agglosID": 9084.0, "agglosName": "Yirol", "ISO3": "SSD", "Pop2015": 35700.0, "Sprawl": null, "Elongation": null }, "geometry": { "type": "Point", "coordinates": [ 30.504842265523664, 6.561234884617039 ] } },
{ "type": "Feature", "properties": { "agglosID": 9083.0, "agglosName": "Yirga chefe", "ISO3": "ETH", "Pop2015": 271222.0, "Sprawl": null, "Elongation": null }, "geometry": { "type": "Point", "coordinates": [ 38.210353588195034, 6.193999314341428 ] } },
{ "type": "Feature", "properties": { "agglosID": 9081.0, "agglosName": "Yinesa sositu", "ISO3": "ETH", "Pop2015": 14527.0, "Sprawl": 2.039677158, "Elongation": 9.2618564 }, "geometry": { "type": "Point", "coordinates": [ 37.322114237372119, 11.559243565787856 ] } },
{ "type": "Feature", "properties": { "agglosID": 9080.0, "agglosName": "Yimirshika", "ISO3": "NGA", "Pop2015": 14130.0, "Sprawl": null, "Elongation": null }, "geometry": { "type": "Point", "coordinates": [ 12.247361921634241, 10.530161042492217 ] } },
{ "type": "Feature", "properties": { "agglosID": 9079.0, "agglosName": "Yida refugee camp", "ISO3": "SSD", "Pop2015": 70000.0, "Sprawl": null, "Elongation": null }, "geometry": { "type": "Point", "coordinates": [ 30.080578373510161, 10.110089347592787 ] } },
{ "type": "Feature", "properties": { "agglosID": 9078.0, "agglosName": "Yezeleka", "ISO3": "ETH", "Pop2015": 16438.0, "Sprawl": 0.585824393, "Elongation": 7.532785195 }, "geometry": { "type": "Point", "coordinates": [ 37.261007362089771, 10.464308641976464 ] } },
{ "type": "Feature", "properties": { "agglosID": 9077.0, "agglosName": "Yendi", "ISO3": "GHA", "Pop2015": 60583.0, "Sprawl": 0.453238791, "Elongation": 4.088585242 }, "geometry": { "type": "Point", "coordinates": [ -0.002849024689175, 9.44775666711103 ] } },
{ "type": "Feature", "properties": { "agglosID": 9076.0, "agglosName": "Yenagoa", "ISO3": "NGA", "Pop2015": 287980.0, "Sprawl": 0.981372534, "Elongation": 9.574688919 }, "geometry": { "type": "Point", "coordinates": [ 6.324495554149436, 4.934451716337027 ] } },
{ "type": "Feature", "properties": { "agglosID": 9075.0, "agglosName": "Yenache", "ISO3": "ETH", "Pop2015": 27180.0, "Sprawl": null, "Elongation": null }, "geometry": { "type": "Point", "coordinates": [ 37.601808775645054, 11.168054648581453 ] } },
{ "type": "Feature", "properties": { "agglosID": 9072.0, "agglosName": "Yelwa 1", "ISO3": "NGA", "Pop2015": 76300.0, "Sprawl": 0.521493707, "Elongation": 6.800049637 }, "geometry": { "type": "Point", "coordinates": [ 4.74527452679191, 10.84743205658841 ] } },
{ "type": "Feature", "properties": { "agglosID": 9073.0, "agglosName": "Yelwa 2", "ISO3": "NGA", "Pop2015": 22417.0, "Sprawl": 0.583032149, "Elongation": 4.33375494 }, "geometry": { "type": "Point", "coordinates": [ 9.661444331400396, 8.808614093618257 ] } },
{ "type": "Feature", "properties": { "agglosID": 9074.0, "agglosName": "Yelwa 3", "ISO3": "NGA", "Pop2015": 16653.0, "Sprawl": 0.858385262, "Elongation": 6.396161999 }, "geometry": { "type": "Point", "coordinates": [ 9.941707586544268, 7.501771747442524 ] } },
{ "type": "Feature", "properties": { "agglosID": 9071.0, "agglosName": "Yellel", "ISO3": "DZA", "Pop2015": 14205.0, "Sprawl": 0.626098149, "Elongation": 4.853550691 }, "geometry": { "type": "Point", "coordinates": [ 0.356575405572188, 35.723424680086254 ] } },
{ "type": "Feature", "properties": { "agglosID": 9070.0, "agglosName": "Yekoua nagalabou", "ISO3": "NER", "Pop2015": 12364.0, "Sprawl": 0.799951508, "Elongation": 4.830797296 }, "geometry": { "type": "Point", "coordinates": [ 8.675380441500739, 13.036460131207036 ] } },
{ "type": "Feature", "properties": { "agglosID": 9069.0, "agglosName": "Yekepa", "ISO3": "LBR", "Pop2015": 12666.0, "Sprawl": 1.091575486, "Elongation": 8.446200881 }, "geometry": { "type": "Point", "coordinates": [ -8.542899520659875, 7.575413995564359 ] } },
{ "type": "Feature", "properties": { "agglosID": 9068.0, "agglosName": "Yejube", "ISO3": "ETH", "Pop2015": 25396.0, "Sprawl": 0.443254394, "Elongation": 8.827962166000001 }, "geometry": { "type": "Point", "coordinates": [ 37.74749741428576, 10.155793572652474 ] } },
{ "type": "Feature", "properties": { "agglosID": 9067.0, "agglosName": "Yei", "ISO3": "SSD", "Pop2015": 93700.0, "Sprawl": null, "Elongation": null }, "geometry": { "type": "Point", "coordinates": [ 30.674689783957795, 4.089775460167237 ] } },
{ "type": "Feature", "properties": { "agglosID": 9066.0, "agglosName": "Yegyi", "ISO3": "GHA", "Pop2015": 42221.0, "Sprawl": 0.545280919, "Elongation": 4.818935243 }, "geometry": { "type": "Point", "coordinates": [ -0.654357957678588, 8.222309126596912 ] } },
{ "type": "Feature", "properties": { "agglosID": 9065.0, "agglosName": "Yeghe", "ISO3": "NGA", "Pop2015": 35190.0, "Sprawl": 0.991366539, "Elongation": 6.143456661 }, "geometry": { "type": "Point", "coordinates": [ 7.362954128419707, 4.67846121480733 ] } },
{ "type": "Feature", "properties": { "agglosID": 9064.0, "agglosName": "Yebokila", "ISO3": "ETH", "Pop2015": 13042.0, "Sprawl": null, "Elongation": null }, "geometry": { "type": "Point", "coordinates": [ 37.890645634240286, 10.443885050223745 ] } },
{ "type": "Feature", "properties": { "agglosID": 9063.0, "agglosName": "Yayu", "ISO3": "ETH", "Pop2015": 22213.0, "Sprawl": 1.707747501, "Elongation": 12.53106138 }, "geometry": { "type": "Point", "coordinates": [ 35.863858932172079, 8.348665703268772 ] } },
{ "type": "Feature", "properties": { "agglosID": 9062.0, "agglosName": "Yaya", "ISO3": "ETH", "Pop2015": 24564.0, "Sprawl": 0.581617677, "Elongation": 7.004041358 }, "geometry": { "type": "Point", "coordinates": [ 38.716488950268513, 6.689967045959359 ] } },
{ "type": "Feature", "properties": { "agglosID": 9061.0, "agglosName": "Yaroungou camp", "ISO3": "TCD", "Pop2015": 13200.0, "Sprawl": null, "Elongation": null }, "geometry": { "type": "Point", "coordinates": [ 16.683768508614932, 8.494617438442511 ] } },
{ "type": "Feature", "properties": { "agglosID": 9060.0, "agglosName": "Yari", "ISO3": "NGA", "Pop2015": 11000.0, "Sprawl": 0.802573042, "Elongation": 9.078268611 }, "geometry": { "type": "Point", "coordinates": [ 7.27108979731045, 7.631951133175945 ] } },
{ "type": "Feature", "properties": { "agglosID": 9058.0, "agglosName": "Yankara", "ISO3": "NGA", "Pop2015": 11872.0, "Sprawl": 0.53434693, "Elongation": 3.086812499 }, "geometry": { "type": "Point", "coordinates": [ 7.077532900117726, 11.784926172721429 ] } },
{ "type": "Feature", "properties": { "agglosID": 9056.0, "agglosName": "Yanfolila", "ISO3": "MLI", "Pop2015": 19415.0, "Sprawl": null, "Elongation": null }, "geometry": { "type": "Point", "coordinates": [ -8.155839849670905, 11.174360287102672 ] } },
{ "type": "Feature", "properties": { "agglosID": 9055.0, "agglosName": "Yana", "ISO3": "NGA", "Pop2015": 15040.0, "Sprawl": 0.43828523, "Elongation": 5.20208213 }, "geometry": { "type": "Point", "coordinates": [ 10.016814723171017, 11.406134073669492 ] } },
{ "type": "Feature", "properties": { "agglosID": 9054.0, "agglosName": "Yamoussoukro", "ISO3": "CIV", "Pop2015": 220423.0, "Sprawl": 0.483623232, "Elongation": 7.084740127 }, "geometry": { "type": "Point", "coordinates": [ -5.267900424787202, 6.807278824069487 ] } },
{ "type": "Feature", "properties": { "agglosID": 9053.0, "agglosName": "Yamfo", "ISO3": "GHA", "Pop2015": 12565.0, "Sprawl": 0.59934256, "Elongation": 4.688515956 }, "geometry": { "type": "Point", "coordinates": [ -2.241029874961049, 7.219792482565395 ] } },
{ "type": "Feature", "properties": { "agglosID": 9050.0, "agglosName": "Yaloké", "ISO3": "CAF", "Pop2015": 15966.0, "Sprawl": 0.781378944, "Elongation": 9.74686922 }, "geometry": { "type": "Point", "coordinates": [ 17.096775934314579, 5.319662022121889 ] } },
{ "type": "Feature", "properties": { "agglosID": 9049.0, "agglosName": "Yalgo", "ISO3": "BFA", "Pop2015": 18881.0, "Sprawl": 0.710448241, "Elongation": 5.673542777 }, "geometry": { "type": "Point", "coordinates": [ -0.263896510845063, 13.590130165641501 ] } },
{ "type": "Feature", "properties": { "agglosID": 9047.0, "agglosName": "Yakum", "ISO3": "NGA", "Pop2015": 27625.0, "Sprawl": 0.443903506, "Elongation": 6.814842008 }, "geometry": { "type": "Point", "coordinates": [ 8.120304951330024, 5.882081162266376 ] } },
{ "type": "Feature", "properties": { "agglosID": 9046.0, "agglosName": "Yakoma", "ISO3": "COD", "Pop2015": 56000.0, "Sprawl": 0.892588795, "Elongation": 9.839960172 }, "geometry": { "type": "Point", "coordinates": [ 22.448183392559159, 4.096254457718759 ] } },
{ "type": "Feature", "properties": { "agglosID": 9045.0, "agglosName": "Yako", "ISO3": "BFA", "Pop2015": 28056.0, "Sprawl": null, "Elongation": null }, "geometry": { "type": "Point", "coordinates": [ -2.259717646253074, 12.957419256865162 ] } },
{ "type": "Feature", "properties": { "agglosID": 9044.0, "agglosName": "Yakata", "ISO3": "COD", "Pop2015": 10700.0, "Sprawl": null, "Elongation": null }, "geometry": { "type": "Point", "coordinates": [ 21.958698495247617, 2.133088755109423 ] } },
{ "type": "Feature", "properties": { "agglosID": 9043.0, "agglosName": "Yakasse-me", "ISO3": "CIV", "Pop2015": 10095.0, "Sprawl": 0.564282, "Elongation": 5.514925266 }, "geometry": { "type": "Point", "coordinates": [ -3.951435288726898, 5.811751325748327 ] } },
{ "type": "Feature", "properties": { "agglosID": 9042.0, "agglosName": "Yakasse-attobrou", "ISO3": "CIV", "Pop2015": 14626.0, "Sprawl": 0.639828985, "Elongation": 5.13631508 }, "geometry": { "type": "Point", "coordinates": [ -3.64951476711739, 6.184648603882339 ] } },
{ "type": "Feature", "properties": { "agglosID": 9040.0, "agglosName": "Yagoua", "ISO3": "CMR", "Pop2015": 45146.0, "Sprawl": null, "Elongation": null }, "geometry": { "type": "Point", "coordinates": [ 15.225285120815224, 10.343502248212626 ] } },
{ "type": "Feature", "properties": { "agglosID": 9039.0, "agglosName": "Yacub ossumane", "ISO3": "MOZ", "Pop2015": 26463.0, "Sprawl": null, "Elongation": null }, "geometry": { "type": "Point", "coordinates": [ 40.728996993828744, -14.729378489140068 ] } },
{ "type": "Feature", "properties": { "agglosID": 9038.0, "agglosName": "Yachiaurache", "ISO3": "ETH", "Pop2015": 10627.0, "Sprawl": null, "Elongation": null }, "geometry": { "type": "Point", "coordinates": [ 36.506208539164447, 7.941352829160503 ] } },
{ "type": "Feature", "properties": { "agglosID": 9037.0, "agglosName": "Yabo", "ISO3": "NGA", "Pop2015": 23175.0, "Sprawl": 0.367567179, "Elongation": 5.814014356 }, "geometry": { "type": "Point", "coordinates": [ 5.008459854259408, 12.729101596550649 ] } },
{ "type": "Feature", "properties": { "agglosID": 9036.0, "agglosName": "Yabelo", "ISO3": "ETH", "Pop2015": 26729.0, "Sprawl": 0.971256334, "Elongation": 9.68397091 }, "geometry": { "type": "Point", "coordinates": [ 38.112701744593075, 4.887941471968722 ] } },
{ "type": "Feature", "properties": { "agglosID": 9035.0, "agglosName": "Yabayo", "ISO3": "CIV", "Pop2015": 20642.0, "Sprawl": 0.668991563, "Elongation": 5.509924615 }, "geometry": { "type": "Point", "coordinates": [ -6.599582296301273, 5.951292249460022 ] } },
{ "type": "Feature", "properties": { "agglosID": 9034.0, "agglosName": "Xuddur", "ISO3": "SOM", "Pop2015": 10400.0, "Sprawl": 0.845493366, "Elongation": 5.797800124 }, "geometry": { "type": "Point", "coordinates": [ 43.886664937728838, 4.119496524445413 ] } },
{ "type": "Feature", "properties": { "agglosID": 9033.0, "agglosName": "Hokwe", "ISO3": "MOZ", "Pop2015": 27921.0, "Sprawl": 1.700311367, "Elongation": 9.977158446000001 }, "geometry": { "type": "Point", "coordinates": [ 33.180522309757492, -24.705786918574905 ] } },
{ "type": "Feature", "properties": { "agglosID": 9032.0, "agglosName": "Xihoko a", "ISO3": "ZAF", "Pop2015": 11036.0, "Sprawl": 1.821108524, "Elongation": 9.498148737 }, "geometry": { "type": "Point", "coordinates": [ 30.48659312419711, -23.642468531510275 ] } },
{ "type": "Feature", "properties": { "agglosID": 9031.0, "agglosName": "Xangongo", "ISO3": "AGO", "Pop2015": 38557.0, "Sprawl": 1.164060031, "Elongation": 6.627651865 }, "geometry": { "type": "Point", "coordinates": [ 14.972971828515874, -16.750961251990976 ] } },
{ "type": "Feature", "properties": { "agglosID": 9030.0, "agglosName": "Wushishi", "ISO3": "NGA", "Pop2015": 24979.0, "Sprawl": 0.530044928, "Elongation": 4.857198925 }, "geometry": { "type": "Point", "coordinates": [ 6.076155788458045, 9.727895248926455 ] } },
{ "type": "Feature", "properties": { "agglosID": 9029.0, "agglosName": "Wurogauri", "ISO3": "NGA", "Pop2015": 10487.0, "Sprawl": 0.518187408, "Elongation": 4.015020345 }, "geometry": { "type": "Point", "coordinates": [ 4.026405380516007, 12.356912770079976 ] } },
{ "type": "Feature", "properties": { "agglosID": 9028.0, "agglosName": "Wuro yolde", "ISO3": "NGA", "Pop2015": 10008.0, "Sprawl": 0.7650235, "Elongation": 4.973268363 }, "geometry": { "type": "Point", "coordinates": [ 12.78016065771717, 9.558570951905713 ] } },
{ "type": "Feature", "properties": { "agglosID": 9027.0, "agglosName": "Wurno", "ISO3": "NGA", "Pop2015": 25440.0, "Sprawl": 0.531684536, "Elongation": 4.069377962 }, "geometry": { "type": "Point", "coordinates": [ 5.423372735422233, 13.284946853159632 ] } },
{ "type": "Feature", "properties": { "agglosID": 9026.0, "agglosName": "Wurisato", "ISO3": "NGA", "Pop2015": 10089.0, "Sprawl": 1.529174644, "Elongation": 6.365117366 }, "geometry": { "type": "Point", "coordinates": [ 10.989175920721651, 10.363004335224035 ] } },
{ "type": "Feature", "properties": { "agglosID": 9025.0, "agglosName": "Wurio", "ISO3": "NGA", "Pop2015": 25416.0, "Sprawl": 0.677512602, "Elongation": 3.924050586 }, "geometry": { "type": "Point", "coordinates": [ 10.515896464823271, 8.391801435817886 ] } },
{ "type": "Feature", "properties": { "agglosID": 9024.0, "agglosName": "Wundyani", "ISO3": "KEN", "Pop2015": 133219.0, "Sprawl": 2.123563664, "Elongation": 13.93790896 }, "geometry": { "type": "Point", "coordinates": [ 38.35860078538439, -3.413808334630643 ] } },
{ "type": "Feature", "properties": { "agglosID": 9023.0, "agglosName": "Wum", "ISO3": "CMR", "Pop2015": 28793.0, "Sprawl": null, "Elongation": null }, "geometry": { "type": "Point", "coordinates": [ 10.07497328665154, 6.391229189413448 ] } },
{ "type": "Feature", "properties": { "agglosID": 9022.0, "agglosName": "Wulensi", "ISO3": "GHA", "Pop2015": 12339.0, "Sprawl": 0.527803818, "Elongation": 4.65206891 }, "geometry": { "type": "Point", "coordinates": [ -0.000277649678738, 8.655320957076697 ] } },
{ "type": "Feature", "properties": { "agglosID": 9021.0, "agglosName": "Wukro", "ISO3": "ETH", "Pop2015": 51476.0, "Sprawl": null, "Elongation": null }, "geometry": { "type": "Point", "coordinates": [ 39.602491200122351, 13.787624568385045 ] } },
{ "type": "Feature", "properties": { "agglosID": 9020.0, "agglosName": "Wukari", "ISO3": "NGA", "Pop2015": 127140.0, "Sprawl": 0.605653367, "Elongation": 5.063973382 }, "geometry": { "type": "Point", "coordinates": [ 9.774302174462235, 7.866835071121018 ] } },
{ "type": "Feature", "properties": { "agglosID": 9019.0, "agglosName": "Wudil", "ISO3": "NGA", "Pop2015": 62730.0, "Sprawl": 0.589167897, "Elongation": 4.016380516 }, "geometry": { "type": "Point", "coordinates": [ 8.847146499304378, 11.797257670177629 ] } },
{ "type": "Feature", "properties": { "agglosID": 9018.0, "agglosName": "Wuchale", "ISO3": "ETH", "Pop2015": 15183.0, "Sprawl": 0.471906159, "Elongation": 7.414785952 }, "geometry": { "type": "Point", "coordinates": [ 39.61083373694386, 11.515094106105305 ] } },
{ "type": "Feature", "properties": { "agglosID": 9017.0, "agglosName": "Wotu/sensenge", "ISO3": "COD", "Pop2015": 43400.0, "Sprawl": null, "Elongation": null }, "geometry": { "type": "Point", "coordinates": [ 29.703170843187166, 3.466513541924385 ] } },
{ "type": "Feature", "properties": { "agglosID": 9016.0, "agglosName": "Worogui", "ISO3": "BEN", "Pop2015": 23366.0, "Sprawl": 0.718949826, "Elongation": 6.955186346 }, "geometry": { "type": "Point", "coordinates": [ 2.592556912658044, 8.890063392277916 ] } },
{ "type": "Feature", "properties": { "agglosID": 9015.0, "agglosName": "Worcester (breede valley)", "ISO3": "ZAF", "Pop2015": 75389.0, "Sprawl": 0.70910091, "Elongation": 3.575074188 }, "geometry": { "type": "Point", "coordinates": [ 19.442666443586845, -33.644389574595955 ] } },
{ "type": "Feature", "properties": { "agglosID": 9014.0, "agglosName": "Wonji shewa sugar cane plantat", "ISO3": "ETH", "Pop2015": 23159.0, "Sprawl": 0.56883662, "Elongation": 5.573563071 }, "geometry": { "type": "Point", "coordinates": [ 39.216111234242483, 8.398689999994712 ] } },
{ "type": "Feature", "properties": { "agglosID": 9013.0, "agglosName": "Wonji gefersa", "ISO3": "ETH", "Pop2015": 27005.0, "Sprawl": 0.695550471, "Elongation": 7.19065838 }, "geometry": { "type": "Point", "coordinates": [ 39.221728445157915, 8.454269990544713 ] } },
{ "type": "Feature", "properties": { "agglosID": 9012.0, "agglosName": "Wonderkop", "ISO3": "ZAF", "Pop2015": 21526.0, "Sprawl": 0.655105304, "Elongation": 3.98340613 }, "geometry": { "type": "Point", "coordinates": [ 27.521253229512816, -25.666813763663583 ] } },
{ "type": "Feature", "properties": { "agglosID": 9009.0, "agglosName": "Woldiya", "ISO3": "ETH", "Pop2015": 72300.0, "Sprawl": 0.582157513, "Elongation": 5.201740421 }, "geometry": { "type": "Point", "coordinates": [ 39.596585025626673, 11.817781547930386 ] } },
{ "type": "Feature", "properties": { "agglosID": 9008.0, "agglosName": "Wodabe 2 (kadione)", "ISO3": "SEN", "Pop2015": 10305.0, "Sprawl": 2.597299663, "Elongation": 11.99174995 }, "geometry": { "type": "Point", "coordinates": [ -15.092019591767581, 16.514763221475484 ] } },
{ "type": "Feature", "properties": { "agglosID": 9007.0, "agglosName": "Wobulenzi", "ISO3": "UGA", "Pop2015": 72082.0, "Sprawl": 1.579923595, "Elongation": 11.42341297 }, "geometry": { "type": "Point", "coordinates": [ 32.53638481359242, 0.7231693745883 ] } },
{ "type": "Feature", "properties": { "agglosID": 9006.0, "agglosName": "Witbank", "ISO3": "ZAF", "Pop2015": 187049.0, "Sprawl": 0.908705083, "Elongation": 4.386522939 }, "geometry": { "type": "Point", "coordinates": [ 29.236687805894029, -25.897725071794852 ] } },
{ "type": "Feature", "properties": { "agglosID": 9005.0, "agglosName": "Wirdan", "ISO3": "EGY", "Pop2015": 98782.0, "Sprawl": 1.462334268, "Elongation": 7.88670094 }, "geometry": { "type": "Point", "coordinates": [ 30.909493458224127, 30.298833669456783 ] } },
{ "type": "Feature", "properties": { "agglosID": 9003.0, "agglosName": "Winneba", "ISO3": "GHA", "Pop2015": 80974.0, "Sprawl": 0.913666759, "Elongation": 5.658430222 }, "geometry": { "type": "Point", "coordinates": [ -0.643430598760766, 5.371893730713047 ] } },
{ "type": "Feature", "properties": { "agglosID": 9001.0, "agglosName": "Windhoek", "ISO3": "NAM", "Pop2015": 357256.0, "Sprawl": 0.794545675, "Elongation": 4.101846418 }, "geometry": { "type": "Point", "coordinates": [ 17.080789861800323, -22.558214000000255 ] } },
{ "type": "Feature", "properties": { "agglosID": 9000.0, "agglosName": "Wiamoase", "ISO3": "GHA", "Pop2015": 14588.0, "Sprawl": 0.497960749, "Elongation": 3.571598341 }, "geometry": { "type": "Point", "coordinates": [ -1.518012776089315, 7.05180475234639 ] } },
{ "type": "Feature", "properties": { "agglosID": 8999.0, "agglosName": "White river central", "ISO3": "ZAF", "Pop2015": 46703.0, "Sprawl": 1.081897465, "Elongation": 7.244868528 }, "geometry": { "type": "Point", "coordinates": [ 30.981256798948191, -25.349712499999931 ] } },
{ "type": "Feature", "properties": { "agglosID": 8996.0, "agglosName": "Wetet abay", "ISO3": "ETH", "Pop2015": 21106.0, "Sprawl": 0.764668298, "Elongation": 8.337258967 }, "geometry": { "type": "Point", "coordinates": [ 37.043557303131934, 11.359930599929706 ] } },
{ "type": "Feature", "properties": { "agglosID": 8995.0, "agglosName": "Wete", "ISO3": "TZA", "Pop2015": 34833.0, "Sprawl": 0.488394854, "Elongation": 3.732416859 }, "geometry": { "type": "Point", "coordinates": [ 39.729028776912628, -5.059139549918521 ] } },
{ "type": "Feature", "properties": { "agglosID": 8997.0, "agglosName": "Wet-wil", "ISO3": "SSD", "Pop2015": 14800.0, "Sprawl": null, "Elongation": null }, "geometry": { "type": "Point", "coordinates": [ 27.188671624464298, 9.008462725706613 ] } },
{ "type": "Feature", "properties": { "agglosID": 8991.0, "agglosName": "Wergesa", "ISO3": "ETH", "Pop2015": 15933.0, "Sprawl": 0.714279277, "Elongation": 8.026368996 }, "geometry": { "type": "Point", "coordinates": [ 39.618863120054677, 11.548286917063754 ] } },
{ "type": "Feature", "properties": { "agglosID": 8990.0, "agglosName": "Wereta", "ISO3": "ETH", "Pop2015": 33200.0, "Sprawl": 0.40083416, "Elongation": 6.228405178 }, "geometry": { "type": "Point", "coordinates": [ 37.690203351536667, 11.914118996231728 ] } },
{ "type": "Feature", "properties": { "agglosID": 8988.0, "agglosName": "Were mehamed", "ISO3": "ETH", "Pop2015": 36392.0, "Sprawl": 1.615436227, "Elongation": 9.520431533 }, "geometry": { "type": "Point", "coordinates": [ 42.177980595625975, 9.4854935 ] } },
{ "type": "Feature", "properties": { "agglosID": 8987.0, "agglosName": "Were ilu", "ISO3": "ETH", "Pop2015": 20427.0, "Sprawl": 0.476252493, "Elongation": 8.166502997 }, "geometry": { "type": "Point", "coordinates": [ 39.437139170852014, 10.582215811395317 ] } },
{ "type": "Feature", "properties": { "agglosID": 8986.0, "agglosName": "Werabe", "ISO3": "ETH", "Pop2015": 18100.0, "Sprawl": 0.740095622, "Elongation": 6.076301026 }, "geometry": { "type": "Point", "coordinates": [ 38.188290104869566, 7.844629283700108 ] } },
{ "type": "Feature", "properties": { "agglosID": 8985.0, "agglosName": "Wenchi", "ISO3": "GHA", "Pop2015": 40193.0, "Sprawl": 0.597466003, "Elongation": 4.697670087 }, "geometry": { "type": "Point", "coordinates": [ -2.095570714386837, 7.747668503458502 ] } },
{ "type": "Feature", "properties": { "agglosID": 8984.0, "agglosName": "Wembo nyama", "ISO3": "COD", "Pop2015": 21200.0, "Sprawl": null, "Elongation": null }, "geometry": { "type": "Point", "coordinates": [ 24.506006246414561, -4.137543130553823 ] } },
{ "type": "Feature", "properties": { "agglosID": 8983.0, "agglosName": "Wembezi", "ISO3": "ZAF", "Pop2015": 22933.0, "Sprawl": 0.834187715, "Elongation": 5.714603005 }, "geometry": { "type": "Point", "coordinates": [ 29.777675285786795, -29.053314322048408 ] } },
{ "type": "Feature", "properties": { "agglosID": 8982.0, "agglosName": "Hagadera (welmerer)", "ISO3": "KEN", "Pop2015": 46136.0, "Sprawl": 0.658238137, "Elongation": 5.050554231 }, "geometry": { "type": "Point", "coordinates": [ 40.363093009119765, -0.001185551403493 ] } },
{ "type": "Feature", "properties": { "agglosID": 8980.0, "agglosName": "Welkom (matjhabeng)", "ISO3": "ZAF", "Pop2015": 169874.0, "Sprawl": 0.983631771, "Elongation": 5.052447238 }, "geometry": { "type": "Point", "coordinates": [ 26.740164679435843, -27.973075842560903 ] } },
{ "type": "Feature", "properties": { "agglosID": 8979.0, "agglosName": "Welkite", "ISO3": "ETH", "Pop2015": 70551.0, "Sprawl": 0.411893162, "Elongation": 6.64707065 }, "geometry": { "type": "Point", "coordinates": [ 37.78399915499952, 8.290135273681736 ] } },
{ "type": "Feature", "properties": { "agglosID": 8978.0, "agglosName": "Weliso", "ISO3": "ETH", "Pop2015": 73107.0, "Sprawl": 0.38040552, "Elongation": 7.052280016 }, "geometry": { "type": "Point", "coordinates": [ 37.972130500208685, 8.546522120943347 ] } },
{ "type": "Feature", "properties": { "agglosID": 8977.0, "agglosName": "Welenchiti", "ISO3": "ETH", "Pop2015": 24425.0, "Sprawl": 0.678453264, "Elongation": 5.781313268 }, "geometry": { "type": "Point", "coordinates": [ 39.428266495110094, 8.655940932302968 ] } },
{ "type": "Feature", "properties": { "agglosID": 8976.0, "agglosName": "Weken", "ISO3": "ETH", "Pop2015": 14610.0, "Sprawl": 0.503570986, "Elongation": 7.60871261 }, "geometry": { "type": "Point", "coordinates": [ 37.828345758774731, 13.064716312670182 ] } },
{ "type": "Feature", "properties": { "agglosID": 8975.0, "agglosName": "Wegel tena", "ISO3": "ETH", "Pop2015": 20200.0, "Sprawl": 0.572016979, "Elongation": 10.66704086 }, "geometry": { "type": "Point", "coordinates": [ 39.21443439956311, 11.591180579064167 ] } },
{ "type": "Feature", "properties": { "agglosID": 8974.0, "agglosName": "Wegada", "ISO3": "ETH", "Pop2015": 16100.0, "Sprawl": 0.478855691, "Elongation": 4.920114934 }, "geometry": { "type": "Point", "coordinates": [ 38.239464307313177, 11.397026755064644 ] } },
{ "type": "Feature", "properties": { "agglosID": 8973.0, "agglosName": "Wedela", "ISO3": "ZAF", "Pop2015": 12974.0, "Sprawl": 0.753104298, "Elongation": 4.140462359 }, "geometry": { "type": "Point", "coordinates": [ 27.386040849492595, -26.463938871331251 ] } },
{ "type": "Feature", "properties": { "agglosID": 8971.0, "agglosName": "Wayu", "ISO3": "ETH", "Pop2015": 15063.0, "Sprawl": 0.521603787, "Elongation": 9.56536349 }, "geometry": { "type": "Point", "coordinates": [ 37.360771452091129, 9.244471411258381 ] } },
{ "type": "Feature", "properties": { "agglosID": 8970.0, "agglosName": "Wawisy", "ISO3": "SDN", "Pop2015": 21616.0, "Sprawl": 2.027628161, "Elongation": 9.907014809 }, "geometry": { "type": "Point", "coordinates": [ 32.594219741926189, 16.055077957850187 ] } },
{ "type": "Feature", "properties": { "agglosID": 8969.0, "agglosName": "Wawa", "ISO3": "NGA", "Pop2015": 14939.0, "Sprawl": 0.528543834, "Elongation": 4.849380419 }, "geometry": { "type": "Point", "coordinates": [ 4.408310106075936, 9.904164482990089 ] } },
{ "type": "Feature", "properties": { "agglosID": 8967.0, "agglosName": "Wau", "ISO3": "SSD", "Pop2015": 192800.0, "Sprawl": null, "Elongation": null }, "geometry": { "type": "Point", "coordinates": [ 27.964968816096402, 7.698467700918345 ] } },
{ "type": "Feature", "properties": { "agglosID": 8966.0, "agglosName": "Watte", "ISO3": "CIV", "Pop2015": 21344.0, "Sprawl": 0.571711171, "Elongation": 5.038441403 }, "geometry": { "type": "Point", "coordinates": [ -6.776942404905014, 4.935457009712435 ] } },
{ "type": "Feature", "properties": { "agglosID": 8965.0, "agglosName": "Watsa/kalimva (gold mines)", "ISO3": "COD", "Pop2015": 55000.0, "Sprawl": 1.007877341, "Elongation": 14.47660278 }, "geometry": { "type": "Point", "coordinates": [ 29.535747618176885, 3.056483949821811 ] } },
{ "type": "Feature", "properties": { "agglosID": 8964.0, "agglosName": "Watersmeet", "ISO3": "ZAF", "Pop2015": 29093.0, "Sprawl": 1.76936394, "Elongation": 9.540626124 }, "geometry": { "type": "Point", "coordinates": [ 29.752833657402299, -28.423587543737234 ] } },
{ "type": "Feature", "properties": { "agglosID": 8961.0, "agglosName": "Wase", "ISO3": "NGA", "Pop2015": 21349.0, "Sprawl": 0.39735134, "Elongation": 6.063025973 }, "geometry": { "type": "Point", "coordinates": [ 9.958611828524756, 9.094237343145583 ] } },
{ "type": "Feature", "properties": { "agglosID": 8960.0, "agglosName": "Wasagu", "ISO3": "NGA", "Pop2015": 13631.0, "Sprawl": 0.58712684, "Elongation": 3.483832832 }, "geometry": { "type": "Point", "coordinates": [ 5.806354398859639, 11.372288372690095 ] } },
{ "type": "Feature", "properties": { "agglosID": 8958.0, "agglosName": "Waru", "ISO3": "NGA", "Pop2015": 10700.0, "Sprawl": 0.398880012, "Elongation": 3.676165739 }, "geometry": { "type": "Point", "coordinates": [ 7.487583689802526, 8.924118500000013 ] } },
{ "type": "Feature", "properties": { "agglosID": 8955.0, "agglosName": "Warji", "ISO3": "NGA", "Pop2015": 11850.0, "Sprawl": 0.87916432, "Elongation": 5.933871746 }, "geometry": { "type": "Point", "coordinates": [ 9.749022742158971, 11.180777526919567 ] } },
{ "type": "Feature", "properties": { "agglosID": 8954.0, "agglosName": "Warder", "ISO3": "ETH", "Pop2015": 11700.0, "Sprawl": 0.68004321, "Elongation": 7.184394856 }, "geometry": { "type": "Point", "coordinates": [ 45.346797449791609, 6.974361300618095 ] } },
{ "type": "Feature", "properties": { "agglosID": 8951.0, "agglosName": "Warawa", "ISO3": "NGA", "Pop2015": 10150.0, "Sprawl": 0.555881071, "Elongation": 3.344861339 }, "geometry": { "type": "Point", "coordinates": [ 8.701778882265165, 11.865736363967176 ] } },
{ "type": "Feature", "properties": { "agglosID": 8950.0, "agglosName": "Waqid", "ISO3": "EGY", "Pop2015": 16157.0, "Sprawl": 0.430758442, "Elongation": 4.30603105 }, "geometry": { "type": "Point", "coordinates": [ 30.742905867232551, 30.695232300194018 ] } },
{ "type": "Feature", "properties": { "agglosID": 8949.0, "agglosName": "Wapinda (sogo)", "ISO3": "COD", "Pop2015": 16000.0, "Sprawl": null, "Elongation": null }, "geometry": { "type": "Point", "coordinates": [ 22.802048041526568, 3.679770450835294 ] } },
{ "type": "Feature", "properties": { "agglosID": 8948.0, "agglosName": "Wannune", "ISO3": "NGA", "Pop2015": 51308.0, "Sprawl": 0.801788557, "Elongation": 6.457690155 }, "geometry": { "type": "Point", "coordinates": [ 8.879074895049207, 7.566312823850456 ] } },
{ "type": "Feature", "properties": { "agglosID": 8947.0, "agglosName": "Wanlaweyn", "ISO3": "SOM", "Pop2015": 26100.0, "Sprawl": 0.596511714, "Elongation": 4.162212689 }, "geometry": { "type": "Point", "coordinates": [ 44.895215461479012, 2.617830601183806 ] } },
{ "type": "Feature", "properties": { "agglosID": 8946.0, "agglosName": "Wanguru", "ISO3": "KEN", "Pop2015": 46406.0, "Sprawl": 0.990624461, "Elongation": 8.069180391 }, "geometry": { "type": "Point", "coordinates": [ 37.361978234795117, -0.67643105690527 ] } },
{ "type": "Feature", "properties": { "agglosID": 8944.0, "agglosName": "Wana al-qiss", "ISO3": "EGY", "Pop2015": 27886.0, "Sprawl": 0.665206682, "Elongation": 4.671200504 }, "geometry": { "type": "Point", "coordinates": [ 31.11481717885372, 29.289696464413858 ] } },
{ "type": "Feature", "properties": { "agglosID": 8943.0, "agglosName": "Wamumu", "ISO3": "KEN", "Pop2015": 21905.0, "Sprawl": 1.134800653, "Elongation": 6.206993584 }, "geometry": { "type": "Point", "coordinates": [ 37.336894689595269, -0.734786170419107 ] } },
{ "type": "Feature", "properties": { "agglosID": 8942.0, "agglosName": "Wamfie", "ISO3": "GHA", "Pop2015": 20309.0, "Sprawl": 0.943979647, "Elongation": 5.860775436 }, "geometry": { "type": "Point", "coordinates": [ -2.702538301209687, 7.306273641410095 ] } },
{ "type": "Feature", "properties": { "agglosID": 8941.0, "agglosName": "Wamdewo", "ISO3": "NGA", "Pop2015": 10618.0, "Sprawl": null, "Elongation": null }, "geometry": { "type": "Point", "coordinates": [ 13.129931191614595, 10.526048780638964 ] } },
{ "type": "Feature", "properties": { "agglosID": 8939.0, "agglosName": "Wamba", "ISO3": "NGA", "Pop2015": 31757.0, "Sprawl": 0.629635997, "Elongation": 5.454557833 }, "geometry": { "type": "Point", "coordinates": [ 8.602106503691049, 8.947363797885197 ] } },
{ "type": "Feature", "properties": { "agglosID": 8940.0, "agglosName": "Wamba", "ISO3": "COD", "Pop2015": 25000.0, "Sprawl": 0.835886195, "Elongation": 8.474030249 },