{
"type": "FeatureCollection",
"name": "afp20_UF",
"crs": { "type": "name", "properties": { "name": "urn:ogc:def:crs:OGC:1.3:CRS84" } },
"features": [
{ "type": "Feature", "properties": { "agglosID": 1.0, "agglosName": "10 ramadan", "ISO3": "EGY", "Pop2020": 184173.0, "Sprawl": null, "Elongation": null }, "geometry": { "type": "Point", "coordinates": [ 31.804065866666733, 30.273822334411463 ] } },
{ "type": "Feature", "properties": { "agglosID": 2.0, "agglosName": "24 al-qurashy", "ISO3": "SDN", "Pop2020": 25340.0, "Sprawl": 1.008246148, "Elongation": 6.421126848 }, "geometry": { "type": "Point", "coordinates": [ 32.77407547607497, 14.246983859756172 ] } },
{ "type": "Feature", "properties": { "agglosID": 4.0, "agglosName": "42nd hill", "ISO3": "ZAF", "Pop2020": 20312.0, "Sprawl": 0.728860339, "Elongation": 4.016723037 }, "geometry": { "type": "Point", "coordinates": [ 29.09931151230025, -28.238928812633965 ] } },
{ "type": "Feature", "properties": { "agglosID": 5.0, "agglosName": "Siigadhere (caabuduwaaq, balan-bale)", "ISO3": "SOM", "Pop2020": 92597.0, "Sprawl": null, "Elongation": null }, "geometry": { "type": "Point", "coordinates": [ 46.240602011077939, 6.238750133221466 ] } },
{ "type": "Feature", "properties": { "agglosID": 6.0, "agglosName": "'adaado", "ISO3": "SOM", "Pop2020": 50200.0, "Sprawl": 0.570533375, "Elongation": 5.323112469 }, "geometry": { "type": "Point", "coordinates": [ 46.631272543565743, 6.137001686841984 ] } },
{ "type": "Feature", "properties": { "agglosID": 7.0, "agglosName": "Aaliyab", "ISO3": "SDN", "Pop2020": 13440.0, "Sprawl": 1.281487395, "Elongation": 8.590408135000001 }, "geometry": { "type": "Point", "coordinates": [ 33.78584855260047, 17.308866091511263 ] } },
{ "type": "Feature", "properties": { "agglosID": 8.0, "agglosName": "Aasalaya", "ISO3": "SDN", "Pop2020": 10412.0, "Sprawl": null, "Elongation": null }, "geometry": { "type": "Point", "coordinates": [ 32.716719052227532, 13.240811786217719 ] } },
{ "type": "Feature", "properties": { "agglosID": 9.0, "agglosName": "Aba", "ISO3": "NGA", "Pop2020": 1731615.0, "Sprawl": 0.682222217, "Elongation": 7.396756443 }, "geometry": { "type": "Point", "coordinates": [ 7.362645460417164, 5.210090283357726 ] } },
{ "type": "Feature", "properties": { "agglosID": 10.0, "agglosName": "Aba", "ISO3": "COD", "Pop2020": 44500.0, "Sprawl": 1.413971381, "Elongation": 12.83723926 }, "geometry": { "type": "Point", "coordinates": [ 30.199182373623287, 3.856151074832392 ] } },
{ "type": "Feature", "properties": { "agglosID": 11.0, "agglosName": "Aba al-waqf", "ISO3": "EGY", "Pop2020": 53956.0, "Sprawl": 0.374101875, "Elongation": 3.833099085 }, "geometry": { "type": "Point", "coordinates": [ 30.769391492979207, 28.587861020786313 ] } },
{ "type": "Feature", "properties": { "agglosID": 13.0, "agglosName": "Abadiyyat al-ruda", "ISO3": "EGY", "Pop2020": 11051.0, "Sprawl": null, "Elongation": null }, "geometry": { "type": "Point", "coordinates": [ 30.891789738659774, 31.074830260248739 ] } },
{ "type": "Feature", "properties": { "agglosID": 14.0, "agglosName": "Abadla", "ISO3": "DZA", "Pop2020": 15254.0, "Sprawl": 0.564229769, "Elongation": 4.49643649 }, "geometry": { "type": "Point", "coordinates": [ -2.708482438314387, 31.03450965374789 ] } },
{ "type": "Feature", "properties": { "agglosID": 15.0, "agglosName": "Abaji", "ISO3": "NGA", "Pop2020": 34363.0, "Sprawl": 0.540516601, "Elongation": 4.387367626 }, "geometry": { "type": "Point", "coordinates": [ 6.950990899851124, 8.471924666239804 ] } },
{ "type": "Feature", "properties": { "agglosID": 17.0, "agglosName": "Abakaliki", "ISO3": "NGA", "Pop2020": 725581.0, "Sprawl": 1.418615023, "Elongation": 10.56838438 }, "geometry": { "type": "Point", "coordinates": [ 7.983343323418184, 6.402304436840312 ] } },
{ "type": "Feature", "properties": { "agglosID": 18.0, "agglosName": "Abala", "ISO3": "ETH", "Pop2020": 17964.0, "Sprawl": 0.494966325, "Elongation": 5.863180969 }, "geometry": { "type": "Point", "coordinates": [ 39.752587037940842, 13.358169233689665 ] } },
{ "type": "Feature", "properties": { "agglosID": 19.0, "agglosName": "Abala maidagi", "ISO3": "NER", "Pop2020": 19002.0, "Sprawl": 0.915509748, "Elongation": 7.174591283 }, "geometry": { "type": "Point", "coordinates": [ 3.417053034198261, 14.923483718165684 ] } },
{ "type": "Feature", "properties": { "agglosID": 20.0, "agglosName": "Abalak", "ISO3": "NER", "Pop2020": 26231.0, "Sprawl": 0.577712245, "Elongation": 7.326985536 }, "geometry": { "type": "Point", "coordinates": [ 6.282519651352372, 15.45980633286376 ] } },
{ "type": "Feature", "properties": { "agglosID": 23.0, "agglosName": "Abdelmalek ramdane", "ISO3": "DZA", "Pop2020": 11566.0, "Sprawl": 0.594789694, "Elongation": 4.038899167 }, "geometry": { "type": "Point", "coordinates": [ 0.272973915940881, 36.105340961392734 ] } },
{ "type": "Feature", "properties": { "agglosID": 24.0, "agglosName": "Abderafi", "ISO3": "ETH", "Pop2020": 17227.0, "Sprawl": 0.721261994, "Elongation": 5.538425777 }, "geometry": { "type": "Point", "coordinates": [ 36.470640474657813, 13.699303156061777 ] } },
{ "type": "Feature", "properties": { "agglosID": 25.0, "agglosName": "Abdi ii", "ISO3": "TCD", "Pop2020": 21649.0, "Sprawl": null, "Elongation": null }, "geometry": { "type": "Point", "coordinates": [ 21.30450248453273, 12.807257378119946 ] } },
{ "type": "Feature", "properties": { "agglosID": 26.0, "agglosName": "Abduka", "ISO3": "NGA", "Pop2020": 13285.0, "Sprawl": 0.553536209, "Elongation": 6.895065176 }, "geometry": { "type": "Point", "coordinates": [ 4.314671892632777, 8.259099921257144 ] } },
{ "type": "Feature", "properties": { "agglosID": 27.0, "agglosName": "Abéché", "ISO3": "TCD", "Pop2020": 148091.0, "Sprawl": null, "Elongation": null }, "geometry": { "type": "Point", "coordinates": [ 20.832961730717329, 13.826691990669849 ] } },
{ "type": "Feature", "properties": { "agglosID": 28.0, "agglosName": "Abengourou", "ISO3": "CIV", "Pop2020": 126471.0, "Sprawl": 0.447724668, "Elongation": 4.814218256 }, "geometry": { "type": "Point", "coordinates": [ -3.495959819793304, 6.73568443839571 ] } },
{ "type": "Feature", "properties": { "agglosID": 29.0, "agglosName": "Abeokuta", "ISO3": "NGA", "Pop2020": 924438.0, "Sprawl": 0.527472871, "Elongation": 3.644221945 }, "geometry": { "type": "Point", "coordinates": [ 3.374165768981372, 7.144530991840988 ] } },
{ "type": "Feature", "properties": { "agglosID": 30.0, "agglosName": "Abetifi", "ISO3": "GHA", "Pop2020": 14710.0, "Sprawl": 0.790080167, "Elongation": 5.69219548 }, "geometry": { "type": "Point", "coordinates": [ -0.73996825277009, 6.67539695464492 ] } },
{ "type": "Feature", "properties": { "agglosID": 31.0, "agglosName": "Abgadam camp", "ISO3": "TCD", "Pop2020": 24850.0, "Sprawl": null, "Elongation": null }, "geometry": { "type": "Point", "coordinates": [ 22.844832840173492, 10.950704604219498 ] } },
{ "type": "Feature", "properties": { "agglosID": 32.0, "agglosName": "Abidjan", "ISO3": "CIV", "Pop2020": 5877152.0, "Sprawl": 0.442368316, "Elongation": 4.794897809 }, "geometry": { "type": "Point", "coordinates": [ -3.959696310635764, 5.36893713839477 ] } },
{ "type": "Feature", "properties": { "agglosID": 34.0, "agglosName": "Abinsi", "ISO3": "NGA", "Pop2020": 11042.0, "Sprawl": 0.592140982, "Elongation": 5.14231204 }, "geometry": { "type": "Point", "coordinates": [ 8.745325560718902, 7.750905774941898 ] } },
{ "type": "Feature", "properties": { "agglosID": 35.0, "agglosName": "Abiriba", "ISO3": "NGA", "Pop2020": 42631.0, "Sprawl": 0.448260113, "Elongation": 3.819776914 }, "geometry": { "type": "Point", "coordinates": [ 7.734539827205012, 5.702521447078166 ] } },
{ "type": "Feature", "properties": { "agglosID": 38.0, "agglosName": "Abiyi adi", "ISO3": "ETH", "Pop2020": 31062.0, "Sprawl": 0.523349736, "Elongation": 6.089019807 }, "geometry": { "type": "Point", "coordinates": [ 38.990465911473677, 13.63167348560982 ] } },
{ "type": "Feature", "properties": { "agglosID": 39.0, "agglosName": "Abiyot fana", "ISO3": "ETH", "Pop2020": 13314.0, "Sprawl": 1.334478147, "Elongation": 7.931011917 }, "geometry": { "type": "Point", "coordinates": [ 37.147082056239867, 11.325716893646383 ] } },
{ "type": "Feature", "properties": { "agglosID": 44.0, "agglosName": "Abofour", "ISO3": "GHA", "Pop2020": 17310.0, "Sprawl": 0.490184278, "Elongation": 3.810270556 }, "geometry": { "type": "Point", "coordinates": [ -1.732906262693716, 7.132035844133278 ] } },
{ "type": "Feature", "properties": { "agglosID": 45.0, "agglosName": "Abogwa", "ISO3": "NGA", "Pop2020": 22467.0, "Sprawl": 0.631997851, "Elongation": 4.029064683 }, "geometry": { "type": "Point", "coordinates": [ 3.713054577389682, 6.638323740337358 ] } },
{ "type": "Feature", "properties": { "agglosID": 46.0, "agglosName": "Aboisso", "ISO3": "CIV", "Pop2020": 52186.0, "Sprawl": 0.644222463, "Elongation": 4.332308075 }, "geometry": { "type": "Point", "coordinates": [ -3.211265271063282, 5.471002684939308 ] } },
{ "type": "Feature", "properties": { "agglosID": 47.0, "agglosName": "Aboisso-comoe", "ISO3": "CIV", "Pop2020": 18203.0, "Sprawl": 0.487240736, "Elongation": 3.284002758 }, "geometry": { "type": "Point", "coordinates": [ -3.40406006533381, 5.734464857698256 ] } },
{ "type": "Feature", "properties": { "agglosID": 48.0, "agglosName": "Abolou", "ISO3": "BEN", "Pop2020": 23909.0, "Sprawl": 2.184059839, "Elongation": 13.5576408 }, "geometry": { "type": "Point", "coordinates": [ 2.142636610441944, 6.849597055176652 ] } },
{ "type": "Feature", "properties": { "agglosID": 49.0, "agglosName": "Abomey", "ISO3": "BEN", "Pop2020": 385036.0, "Sprawl": 0.770789455, "Elongation": 6.048801126 }, "geometry": { "type": "Point", "coordinates": [ 2.063444078817872, 7.161470749856048 ] } },
{ "type": "Feature", "properties": { "agglosID": 51.0, "agglosName": "Abomsa", "ISO3": "ETH", "Pop2020": 20989.0, "Sprawl": 0.522337204, "Elongation": 3.337789586 }, "geometry": { "type": "Point", "coordinates": [ 39.833114580818467, 8.487028893394317 ] } },
{ "type": "Feature", "properties": { "agglosID": 52.0, "agglosName": "Abong-mbang", "ISO3": "CMR", "Pop2020": 19043.0, "Sprawl": 0.7369145, "Elongation": 3.377660756 }, "geometry": { "type": "Point", "coordinates": [ 13.178405707047332, 3.976549843135501 ] } },
{ "type": "Feature", "properties": { "agglosID": 53.0, "agglosName": "Abongoua 1", "ISO3": "CIV", "Pop2020": 13793.0, "Sprawl": 0.579318985, "Elongation": 5.86820379 }, "geometry": { "type": "Point", "coordinates": [ -4.107510584581393, 6.657285591267308 ] } },
{ "type": "Feature", "properties": { "agglosID": 54.0, "agglosName": "Abonnema", "ISO3": "NGA", "Pop2020": 63020.0, "Sprawl": 1.202667397, "Elongation": 8.81890845 }, "geometry": { "type": "Point", "coordinates": [ 6.76614598096308, 4.746611896437824 ] } },
{ "type": "Feature", "properties": { "agglosID": 55.0, "agglosName": "Abora", "ISO3": "ETH", "Pop2020": 14210.0, "Sprawl": 0.644976538, "Elongation": 12.55136397 }, "geometry": { "type": "Point", "coordinates": [ 37.02925636744687, 9.986362047686516 ] } },
{ "type": "Feature", "properties": { "agglosID": 57.0, "agglosName": "Abou el hassan", "ISO3": "DZA", "Pop2020": 17169.0, "Sprawl": 0.418680432, "Elongation": 3.4644642 }, "geometry": { "type": "Point", "coordinates": [ 1.185848455133957, 36.422572680075803 ] } },
{ "type": "Feature", "properties": { "agglosID": 58.0, "agglosName": "Aboude-kouassikro", "ISO3": "CIV", "Pop2020": 24522.0, "Sprawl": 1.351680357, "Elongation": 7.985860819 }, "geometry": { "type": "Point", "coordinates": [ -4.533898271643716, 5.892319527141344 ] } },
{ "type": "Feature", "properties": { "agglosID": 59.0, "agglosName": "Abougoudam", "ISO3": "TCD", "Pop2020": 18339.0, "Sprawl": null, "Elongation": null }, "geometry": { "type": "Point", "coordinates": [ 20.75166197536749, 13.658210952249934 ] } },
{ "type": "Feature", "properties": { "agglosID": 60.0, "agglosName": "Abraka", "ISO3": "NGA", "Pop2020": 78190.0, "Sprawl": 0.554005865, "Elongation": 5.778095811 }, "geometry": { "type": "Point", "coordinates": [ 6.106192978432548, 5.78870964263627 ] } },
{ "type": "Feature", "properties": { "agglosID": 61.0, "agglosName": "Abshadat", "ISO3": "EGY", "Pop2020": 77055.0, "Sprawl": 0.546672027, "Elongation": 3.18542416 }, "geometry": { "type": "Point", "coordinates": [ 30.729439484151406, 27.847332012682148 ] } },
{ "type": "Feature", "properties": { "agglosID": 62.0, "agglosName": "Abshan", "ISO3": "EGY", "Pop2020": 27569.0, "Sprawl": 0.594963691, "Elongation": 4.64684565 }, "geometry": { "type": "Point", "coordinates": [ 31.164680493307866, 31.173190279531852 ] } },
{ "type": "Feature", "properties": { "agglosID": 65.0, "agglosName": "Absug", "ISO3": "EGY", "Pop2020": 15599.0, "Sprawl": 0.375927229, "Elongation": 2.650449773 }, "geometry": { "type": "Point", "coordinates": [ 30.889251413410246, 28.853810667248503 ] } },
{ "type": "Feature", "properties": { "agglosID": 66.0, "agglosName": "Abu al-abbas", "ISO3": "EGY", "Pop2020": 24934.0, "Sprawl": 1.124664526, "Elongation": 4.462108307 }, "geometry": { "type": "Point", "coordinates": [ 30.749326838816469, 28.499506006265005 ] } },
{ "type": "Feature", "properties": { "agglosID": 70.0, "agglosName": "Abu al-khawi", "ISO3": "EGY", "Pop2020": 14330.0, "Sprawl": null, "Elongation": null }, "geometry": { "type": "Point", "coordinates": [ 30.806725900195776, 30.593048388364014 ] } },
{ "type": "Feature", "properties": { "agglosID": 71.0, "agglosName": "Abu al-matamir", "ISO3": "EGY", "Pop2020": 133090.0, "Sprawl": 0.924691761, "Elongation": 6.605767892 }, "geometry": { "type": "Point", "coordinates": [ 30.158833949023698, 30.918045976807292 ] } },
{ "type": "Feature", "properties": { "agglosID": 74.0, "agglosName": "Abu al-shiqaf", "ISO3": "EGY", "Pop2020": 20432.0, "Sprawl": 1.329234293, "Elongation": 6.796657037 }, "geometry": { "type": "Point", "coordinates": [ 30.41256690542787, 30.8854988606465 ] } },
{ "type": "Feature", "properties": { "agglosID": 75.0, "agglosName": "Abu al-shuquq", "ISO3": "EGY", "Pop2020": 17887.0, "Sprawl": 0.530145759, "Elongation": 5.177569392 }, "geometry": { "type": "Point", "coordinates": [ 31.600894311636843, 30.827044611143354 ] } },
{ "type": "Feature", "properties": { "agglosID": 79.0, "agglosName": "Abu danqash", "ISO3": "EGY", "Pop2020": 16694.0, "Sprawl": 0.269578565, "Elongation": 4.723073515 }, "geometry": { "type": "Point", "coordinates": [ 30.678835042079509, 29.291884631421947 ] } },
{ "type": "Feature", "properties": { "agglosID": 80.0, "agglosName": "Abu darraz", "ISO3": "EGY", "Pop2020": 12128.0, "Sprawl": 0.766145371, "Elongation": 9.154523376 }, "geometry": { "type": "Point", "coordinates": [ 30.620654596472995, 31.22303630414477 ] } },
{ "type": "Feature", "properties": { "agglosID": 81.0, "agglosName": "Abu dashisha", "ISO3": "EGY", "Pop2020": 27851.0, "Sprawl": 0.707396537, "Elongation": 3.677265968 }, "geometry": { "type": "Point", "coordinates": [ 31.351821875881363, 31.303187371598575 ] } },
{ "type": "Feature", "properties": { "agglosID": 82.0, "agglosName": "Abu dawn", "ISO3": "SDN", "Pop2020": 12532.0, "Sprawl": 1.753537811, "Elongation": 12.07632203 }, "geometry": { "type": "Point", "coordinates": [ 31.117981110269351, 17.984011954394607 ] } },
{ "type": "Feature", "properties": { "agglosID": 83.0, "agglosName": "Abu dawud al-inab", "ISO3": "EGY", "Pop2020": 16169.0, "Sprawl": 0.645437294, "Elongation": 3.85345882 }, "geometry": { "type": "Point", "coordinates": [ 31.366201207039921, 30.868840826366089 ] } },
{ "type": "Feature", "properties": { "agglosID": 84.0, "agglosName": "Abu dawud al-sabbakh", "ISO3": "EGY", "Pop2020": 24163.0, "Sprawl": 0.31645384, "Elongation": 2.239928293 }, "geometry": { "type": "Point", "coordinates": [ 31.57616681819654, 30.914378896713931 ] } },
{ "type": "Feature", "properties": { "agglosID": 85.0, "agglosName": "Abu durra", "ISO3": "EGY", "Pop2020": 15983.0, "Sprawl": 0.559533266, "Elongation": 4.462801795 }, "geometry": { "type": "Point", "coordinates": [ 30.620914189858578, 31.009828656785963 ] } },
{ "type": "Feature", "properties": { "agglosID": 86.0, "agglosName": "Abu galal", "ISO3": "EGY", "Pop2020": 25424.0, "Sprawl": 1.164330169, "Elongation": 6.591251913 }, "geometry": { "type": "Point", "coordinates": [ 31.565980544303599, 31.2724785058317 ] } },
{ "type": "Feature", "properties": { "agglosID": 87.0, "agglosName": "Abu gandir", "ISO3": "EGY", "Pop2020": 39016.0, "Sprawl": 0.490228247, "Elongation": 5.376268793 }, "geometry": { "type": "Point", "coordinates": [ 30.665787968110592, 29.241017998566903 ] } },
{ "type": "Feature", "properties": { "agglosID": 90.0, "agglosName": "Abu guta", "ISO3": "SDN", "Pop2020": 15312.0, "Sprawl": 0.431916046, "Elongation": 3.739100452 }, "geometry": { "type": "Point", "coordinates": [ 32.732699995760733, 14.931374950803637 ] } },
{ "type": "Feature", "properties": { "agglosID": 91.0, "agglosName": "Abu hamad", "ISO3": "SDN", "Pop2020": 13837.0, "Sprawl": 0.815931436, "Elongation": 4.922518621 }, "geometry": { "type": "Point", "coordinates": [ 33.324550436030577, 19.537235411371181 ] } },
{ "type": "Feature", "properties": { "agglosID": 93.0, "agglosName": "Abu hijar", "ISO3": "SDN", "Pop2020": 14375.0, "Sprawl": null, "Elongation": null }, "geometry": { "type": "Point", "coordinates": [ 33.987710888330774, 12.856975048859921 ] } },
{ "type": "Feature", "properties": { "agglosID": 96.0, "agglosName": "Abu jabra", "ISO3": "SDN", "Pop2020": 17472.0, "Sprawl": 1.142832844, "Elongation": 8.413013022 }, "geometry": { "type": "Point", "coordinates": [ 26.740302187743747, 11.065752639055479 ] } },
{ "type": "Feature", "properties": { "agglosID": 97.0, "agglosName": "Abu jubayha", "ISO3": "SDN", "Pop2020": 61276.0, "Sprawl": 0.585648568, "Elongation": 7.376826944 }, "geometry": { "type": "Point", "coordinates": [ 31.230657642899018, 11.472453229211016 ] } },
{ "type": "Feature", "properties": { "agglosID": 100.0, "agglosName": "Abu karinka", "ISO3": "SDN", "Pop2020": 23100.0, "Sprawl": 1.272973921, "Elongation": 7.176897867 }, "geometry": { "type": "Point", "coordinates": [ 26.545326317605841, 11.58765690512892 ] } },
{ "type": "Feature", "properties": { "agglosID": 101.0, "agglosName": "Abu karshulh khawr al-taina", "ISO3": "SDN", "Pop2020": 14760.0, "Sprawl": 0.849454272, "Elongation": 5.712688747 }, "geometry": { "type": "Point", "coordinates": [ 30.790000232062162, 12.150045832831376 ] } },
{ "type": "Feature", "properties": { "agglosID": 103.0, "agglosName": "Abu kuke", "ISO3": "ETH", "Pop2020": 15452.0, "Sprawl": 0.633692062, "Elongation": 14.00474032 }, "geometry": { "type": "Point", "coordinates": [ 38.343317928200378, 9.911727512104772 ] } },
{ "type": "Feature", "properties": { "agglosID": 104.0, "agglosName": "Urin", "ISO3": "EGY", "Pop2020": 59445.0, "Sprawl": 1.324084762, "Elongation": 5.678099693 }, "geometry": { "type": "Point", "coordinates": [ 30.695343311199501, 30.95209630319987 ] } },
{ "type": "Feature", "properties": { "agglosID": 105.0, "agglosName": "Abu manna bahri", "ISO3": "EGY", "Pop2020": 85530.0, "Sprawl": 0.710206753, "Elongation": 6.466548744 }, "geometry": { "type": "Point", "coordinates": [ 32.388173295263854, 26.157669247565369 ] } },
{ "type": "Feature", "properties": { "agglosID": 107.0, "agglosName": "Abu manna sharq", "ISO3": "EGY", "Pop2020": 18013.0, "Sprawl": 0.656512544, "Elongation": 4.932662199 }, "geometry": { "type": "Point", "coordinates": [ 32.471346086663736, 26.184282391721386 ] } },
{ "type": "Feature", "properties": { "agglosID": 108.0, "agglosName": "Abu matariq", "ISO3": "SDN", "Pop2020": 16050.0, "Sprawl": 1.197977511, "Elongation": 8.718975403 }, "geometry": { "type": "Point", "coordinates": [ 26.205417623543177, 10.984593515141801 ] } },
{ "type": "Feature", "properties": { "agglosID": 121.0, "agglosName": "Abu sir al-malaq", "ISO3": "EGY", "Pop2020": 36437.0, "Sprawl": 0.671287742, "Elongation": 5.316900556 }, "geometry": { "type": "Point", "coordinates": [ 31.090593198723603, 29.258709843372209 ] } },
{ "type": "Feature", "properties": { "agglosID": 122.0, "agglosName": "Abu sir bana", "ISO3": "EGY", "Pop2020": 69217.0, "Sprawl": 0.958641516, "Elongation": 4.260458848 }, "geometry": { "type": "Point", "coordinates": [ 31.231741148853271, 30.894369386692869 ] } },
{ "type": "Feature", "properties": { "agglosID": 125.0, "agglosName": "Abu ushar", "ISO3": "SDN", "Pop2020": 14210.0, "Sprawl": null, "Elongation": null }, "geometry": { "type": "Point", "coordinates": [ 33.208164181976599, 14.923444335956816 ] } },
{ "type": "Feature", "properties": { "agglosID": 126.0, "agglosName": "Abu zabad", "ISO3": "SDN", "Pop2020": 30102.0, "Sprawl": 0.860350603, "Elongation": 5.301618577 }, "geometry": { "type": "Point", "coordinates": [ 29.231266748919076, 12.354114055148999 ] } },
{ "type": "Feature", "properties": { "agglosID": 130.0, "agglosName": "Abud", "ISO3": "SDN", "Pop2020": 10179.0, "Sprawl": null, "Elongation": null }, "geometry": { "type": "Point", "coordinates": [ 33.132467511364091, 14.226310672285557 ] } },
{ "type": "Feature", "properties": { "agglosID": 132.0, "agglosName": "Abuesi", "ISO3": "GHA", "Pop2020": 27006.0, "Sprawl": 0.498203654, "Elongation": 3.465004104 }, "geometry": { "type": "Point", "coordinates": [ -1.649104163059182, 4.98118801909657 ] } },
{ "type": "Feature", "properties": { "agglosID": 133.0, "agglosName": "Abuja", "ISO3": "NGA", "Pop2020": 3265077.0, "Sprawl": 0.837870151, "Elongation": 5.381761477 }, "geometry": { "type": "Point", "coordinates": [ 7.446020416396458, 9.062758289692393 ] } },
{ "type": "Feature", "properties": { "agglosID": 134.0, "agglosName": "Abuja military areas", "ISO3": "NGA", "Pop2020": 17724.0, "Sprawl": 0.632017769, "Elongation": 3.692661607 }, "geometry": { "type": "Point", "coordinates": [ 7.260390357647466, 8.968095772631608 ] } },
{ "type": "Feature", "properties": { "agglosID": 135.0, "agglosName": "Abukur", "ISO3": "NGA", "Pop2020": 17148.0, "Sprawl": 0.450981261, "Elongation": 3.449463494 }, "geometry": { "type": "Point", "coordinates": [ 7.66195244290356, 12.872902493605707 ] } },
{ "type": "Feature", "properties": { "agglosID": 137.0, "agglosName": "Bakongo (abumombazi)", "ISO3": "COD", "Pop2020": 26600.0, "Sprawl": 0.896629418, "Elongation": 6.045654223 }, "geometry": { "type": "Point", "coordinates": [ 22.153169098012874, 3.683004673835131 ] } },
{ "type": "Feature", "properties": { "agglosID": 138.0, "agglosName": "Abuochicie", "ISO3": "NGA", "Pop2020": 31591.0, "Sprawl": 1.740192071, "Elongation": 9.311379613 }, "geometry": { "type": "Point", "coordinates": [ 8.976993241346953, 6.753449890618954 ] } },
{ "type": "Feature", "properties": { "agglosID": 139.0, "agglosName": "Abura dunkwa", "ISO3": "GHA", "Pop2020": 11719.0, "Sprawl": 0.615624685, "Elongation": 4.683566361 }, "geometry": { "type": "Point", "coordinates": [ -1.170762140057702, 5.339395896575886 ] } },
{ "type": "Feature", "properties": { "agglosID": 141.0, "agglosName": "Abwan", "ISO3": "EGY", "Pop2020": 21613.0, "Sprawl": 0.210381095, "Elongation": 3.050863621 }, "geometry": { "type": "Point", "coordinates": [ 30.726552221818459, 28.399480861596224 ] } },
{ "type": "Feature", "properties": { "agglosID": 143.0, "agglosName": "Abyar", "ISO3": "EGY", "Pop2020": 80431.0, "Sprawl": 0.753254047, "Elongation": 5.327336877 }, "geometry": { "type": "Point", "coordinates": [ 30.864258327348406, 30.838398601626352 ] } },
{ "type": "Feature", "properties": { "agglosID": 144.0, "agglosName": "Abyuha", "ISO3": "EGY", "Pop2020": 13179.0, "Sprawl": 0.250883346, "Elongation": 2.784656797 }, "geometry": { "type": "Point", "coordinates": [ 30.829284757104539, 27.966296441900734 ] } },
{ "type": "Feature", "properties": { "agglosID": 145.0, "agglosName": "Accra", "ISO3": "GHA", "Pop2020": 4686394.0, "Sprawl": 0.525598767, "Elongation": 4.268561594 }, "geometry": { "type": "Point", "coordinates": [ -0.078460286417326, 5.746204203219722 ] } },
{ "type": "Feature", "properties": { "agglosID": 146.0, "agglosName": "Achaacha", "ISO3": "DZA", "Pop2020": 15878.0, "Sprawl": null, "Elongation": null }, "geometry": { "type": "Point", "coordinates": [ 0.631818470090574, 36.245021225716741 ] } },
{ "type": "Feature", "properties": { "agglosID": 147.0, "agglosName": "Achalla", "ISO3": "NGA", "Pop2020": 13919.0, "Sprawl": 0.545220951, "Elongation": 4.808950011 }, "geometry": { "type": "Point", "coordinates": [ 6.988414181502632, 6.337232937820528 ] } },
{ "type": "Feature", "properties": { "agglosID": 148.0, "agglosName": "Achi 1", "ISO3": "NGA", "Pop2020": 53260.0, "Sprawl": 1.355323296, "Elongation": 7.319802453 }, "geometry": { "type": "Point", "coordinates": [ 7.369037135496134, 6.142538829008078 ] } },
{ "type": "Feature", "properties": { "agglosID": 149.0, "agglosName": "Achi 2", "ISO3": "NGA", "Pop2020": 12338.0, "Sprawl": 0.441025668, "Elongation": 3.999639356 }, "geometry": { "type": "Point", "coordinates": [ 7.384364402940006, 10.053185055610198 ] } },
{ "type": "Feature", "properties": { "agglosID": 150.0, "agglosName": "Kashwal", "ISO3": "SSD", "Pop2020": 69000.0, "Sprawl": null, "Elongation": null }, "geometry": { "type": "Point", "coordinates": [ 29.242367461960225, 7.007342272947688 ] } },
{ "type": "Feature", "properties": { "agglosID": 152.0, "agglosName": "Ada foah", "ISO3": "GHA", "Pop2020": 13237.0, "Sprawl": 0.941950827, "Elongation": 9.342782525000001 }, "geometry": { "type": "Point", "coordinates": [ 0.615338624305944, 5.780047480954918 ] } },
{ "type": "Feature", "properties": { "agglosID": 153.0, "agglosName": "Adaba", "ISO3": "ETH", "Pop2020": 24745.0, "Sprawl": 0.563454566, "Elongation": 6.473774309 }, "geometry": { "type": "Point", "coordinates": [ 39.389744807946848, 7.012359700905848 ] } },
{ "type": "Feature", "properties": { "agglosID": 154.0, "agglosName": "Adakplame", "ISO3": "BEN", "Pop2020": 11407.0, "Sprawl": null, "Elongation": null }, "geometry": { "type": "Point", "coordinates": [ 2.558552472435306, 7.45479808915123 ] } },
{ "type": "Feature", "properties": { "agglosID": 155.0, "agglosName": "Adama", "ISO3": "ETH", "Pop2020": 454764.0, "Sprawl": 0.428433857, "Elongation": 4.50584663 }, "geometry": { "type": "Point", "coordinates": [ 39.268591408732632, 8.51489025113645 ] } },
{ "type": "Feature", "properties": { "agglosID": 156.0, "agglosName": "Adami tulu", "ISO3": "ETH", "Pop2020": 28384.0, "Sprawl": 0.32897905, "Elongation": 2.754545474 }, "geometry": { "type": "Point", "coordinates": [ 38.703965785581239, 7.855159163304724 ] } },
{ "type": "Feature", "properties": { "agglosID": 157.0, "agglosName": "Adayla", "ISO3": "SDN", "Pop2020": 47158.0, "Sprawl": 1.264334785, "Elongation": 7.394487915 }, "geometry": { "type": "Point", "coordinates": [ 27.003524337786324, 11.337129649147208 ] } },
{ "type": "Feature", "properties": { "agglosID": 158.0, "agglosName": "Adda daoueni", "ISO3": "COM", "Pop2020": 17302.0, "Sprawl": 1.048868032, "Elongation": 6.494248475 }, "geometry": { "type": "Point", "coordinates": [ 44.49934536314359, -12.299261198288562 ] } },
{ "type": "Feature", "properties": { "agglosID": 159.0, "agglosName": "Addis ababa", "ISO3": "ETH", "Pop2020": 4273817.0, "Sprawl": 0.459273151, "Elongation": 5.289832925 }, "geometry": { "type": "Point", "coordinates": [ 38.770784702597759, 8.884383414555938 ] } },
{ "type": "Feature", "properties": { "agglosID": 160.0, "agglosName": "Addis alem 1", "ISO3": "ETH", "Pop2020": 14172.0, "Sprawl": 0.510005674, "Elongation": 5.156116367 }, "geometry": { "type": "Point", "coordinates": [ 38.391762297017067, 9.044311497303823 ] } },
{ "type": "Feature", "properties": { "agglosID": 161.0, "agglosName": "Addis alem 2", "ISO3": "ETH", "Pop2020": 13175.0, "Sprawl": null, "Elongation": null }, "geometry": { "type": "Point", "coordinates": [ 37.091244598837925, 11.203361447352176 ] } },
{ "type": "Feature", "properties": { "agglosID": 162.0, "agglosName": "Addis kidam", "ISO3": "ETH", "Pop2020": 32893.0, "Sprawl": 0.343492311, "Elongation": 6.30620794 }, "geometry": { "type": "Point", "coordinates": [ 36.885999212911685, 11.084637650055344 ] } },
{ "type": "Feature", "properties": { "agglosID": 163.0, "agglosName": "Ado awaiye", "ISO3": "NGA", "Pop2020": 10895.0, "Sprawl": 0.37664413, "Elongation": 4.633402544 }, "geometry": { "type": "Point", "coordinates": [ 3.428258511672253, 7.830308028765678 ] } },
{ "type": "Feature", "properties": { "agglosID": 164.0, "agglosName": "Ade", "ISO3": "TCD", "Pop2020": 21836.0, "Sprawl": null, "Elongation": null }, "geometry": { "type": "Point", "coordinates": [ 21.879624653055288, 12.67915776374319 ] } },
{ "type": "Feature", "properties": { "agglosID": 165.0, "agglosName": "Skhirate", "ISO3": "MAR", "Pop2020": 85361.0, "Sprawl": null, "Elongation": null }, "geometry": { "type": "Point", "coordinates": [ -7.049038891880708, 33.838271069781896 ] } },
{ "type": "Feature", "properties": { "agglosID": 166.0, "agglosName": "Adebaye", "ISO3": "ETH", "Pop2020": 15221.0, "Sprawl": 0.616433931, "Elongation": 6.370072529 }, "geometry": { "type": "Point", "coordinates": [ 36.759061810390655, 14.200698894133225 ] } },
{ "type": "Feature", "properties": { "agglosID": 168.0, "agglosName": "Adeiso", "ISO3": "GHA", "Pop2020": 17656.0, "Sprawl": 0.453273468, "Elongation": 4.631698616 }, "geometry": { "type": "Point", "coordinates": [ -0.483728837792134, 5.794398796789222 ] } },
{ "type": "Feature", "properties": { "agglosID": 169.0, "agglosName": "Adele", "ISO3": "ETH", "Pop2020": 20163.0, "Sprawl": 0.534285617, "Elongation": 7.822919799 }, "geometry": { "type": "Point", "coordinates": [ 39.905640372504905, 7.789157098169426 ] } },
{ "type": "Feature", "properties": { "agglosID": 172.0, "agglosName": "Adet", "ISO3": "ETH", "Pop2020": 44183.0, "Sprawl": 0.414945378, "Elongation": 4.629636557 }, "geometry": { "type": "Point", "coordinates": [ 37.488964849097243, 11.256203747037725 ] } },
{ "type": "Feature", "properties": { "agglosID": 173.0, "agglosName": "Adeta", "ISO3": "TGO", "Pop2020": 21133.0, "Sprawl": 0.874102312, "Elongation": 7.004798722 }, "geometry": { "type": "Point", "coordinates": [ 0.733825311388623, 7.129676200020986 ] } },
{ "type": "Feature", "properties": { "agglosID": 175.0, "agglosName": "Adfu", "ISO3": "EGY", "Pop2020": 161482.0, "Sprawl": 1.499836757, "Elongation": 9.496094217 }, "geometry": { "type": "Point", "coordinates": [ 32.871707879852465, 24.961052549868597 ] } },
{ "type": "Feature", "properties": { "agglosID": 176.0, "agglosName": "Adhi bdo (arcugi)", "ISO3": "ERI", "Pop2020": 17099.0, "Sprawl": null, "Elongation": null }, "geometry": { "type": "Point", "coordinates": [ 36.863043402698146, 14.962141548782331 ] } },
{ "type": "Feature", "properties": { "agglosID": 179.0, "agglosName": "Adi gudom", "ISO3": "ETH", "Pop2020": 28797.0, "Sprawl": 0.769834651, "Elongation": 4.258306431 }, "geometry": { "type": "Point", "coordinates": [ 39.527605235851965, 13.243778430761846 ] } },
{ "type": "Feature", "properties": { "agglosID": 180.0, "agglosName": "Adi keyih", "ISO3": "ERI", "Pop2020": 14220.0, "Sprawl": 0.566854671, "Elongation": 2.997679424 }, "geometry": { "type": "Point", "coordinates": [ 39.371727769105469, 14.847324496680834 ] } },
{ "type": "Feature", "properties": { "agglosID": 181.0, "agglosName": "Adi remets", "ISO3": "ETH", "Pop2020": 15005.0, "Sprawl": 0.631617627, "Elongation": 5.788922405 }, "geometry": { "type": "Point", "coordinates": [ 37.322581435717446, 13.749322429010308 ] } },
{ "type": "Feature", "properties": { "agglosID": 182.0, "agglosName": "Adi tekelezan", "ISO3": "ERI", "Pop2020": 14850.0, "Sprawl": 0.859230624, "Elongation": 6.38056207 }, "geometry": { "type": "Point", "coordinates": [ 38.774266962291946, 15.573738566714413 ] } },
{ "type": "Feature", "properties": { "agglosID": 183.0, "agglosName": "Adiake", "ISO3": "CIV", "Pop2020": 22625.0, "Sprawl": 0.529775338, "Elongation": 4.850882334 }, "geometry": { "type": "Point", "coordinates": [ -3.303364644445805, 5.285495983372608 ] } },
{ "type": "Feature", "properties": { "agglosID": 185.0, "agglosName": "Adigrat", "ISO3": "ETH", "Pop2020": 132530.0, "Sprawl": 0.47315744, "Elongation": 6.173465755 }, "geometry": { "type": "Point", "coordinates": [ 39.462952943113393, 14.298788835087739 ] } },
{ "type": "Feature", "properties": { "agglosID": 186.0, "agglosName": "Adikpo", "ISO3": "NGA", "Pop2020": 66103.0, "Sprawl": 0.725129882, "Elongation": 6.328869377 }, "geometry": { "type": "Point", "coordinates": [ 9.234753328981135, 6.883668999006858 ] } },
{ "type": "Feature", "properties": { "agglosID": 187.0, "agglosName": "Adina", "ISO3": "GHA", "Pop2020": 13230.0, "Sprawl": 2.489914751, "Elongation": 17.56860722 }, "geometry": { "type": "Point", "coordinates": [ 1.055709410069598, 6.018845859273922 ] } },
{ "type": "Feature", "properties": { "agglosID": 188.0, "agglosName": "Adiquala", "ISO3": "ERI", "Pop2020": 15000.0, "Sprawl": 0.584173188, "Elongation": 4.749127049 }, "geometry": { "type": "Point", "coordinates": [ 38.833143183605557, 14.639275683579024 ] } },
{ "type": "Feature", "properties": { "agglosID": 189.0, "agglosName": "Adis zemen", "ISO3": "ETH", "Pop2020": 27630.0, "Sprawl": 0.496388758, "Elongation": 4.09309012 }, "geometry": { "type": "Point", "coordinates": [ 37.780385641281661, 12.122950914354867 ] } },
{ "type": "Feature", "properties": { "agglosID": 190.0, "agglosName": "Adishohu", "ISO3": "ETH", "Pop2020": 18023.0, "Sprawl": 0.500199498, "Elongation": 8.274726301 }, "geometry": { "type": "Point", "coordinates": [ 39.519240660484868, 12.933085407875353 ] } },
{ "type": "Feature", "properties": { "agglosID": 191.0, "agglosName": "Adja tokpa i", "ISO3": "BEN", "Pop2020": 39021.0, "Sprawl": null, "Elongation": null }, "geometry": { "type": "Point", "coordinates": [ 1.9835159829072, 6.462162283663552 ] } },
{ "type": "Feature", "properties": { "agglosID": 192.0, "agglosName": "Adjaglimey", "ISO3": "BEN", "Pop2020": 23059.0, "Sprawl": 1.390651619, "Elongation": 7.534219412 }, "geometry": { "type": "Point", "coordinates": [ 1.938514564635235, 6.89488741127639 ] } },
{ "type": "Feature", "properties": { "agglosID": 193.0, "agglosName": "Adjaha", "ISO3": "BEN", "Pop2020": 13998.0, "Sprawl": null, "Elongation": null }, "geometry": { "type": "Point", "coordinates": [ 2.409172245071301, 8.302133663587 ] } },
{ "type": "Feature", "properties": { "agglosID": 194.0, "agglosName": "Adjamene", "ISO3": "CIV", "Pop2020": 12949.0, "Sprawl": 0.588392577, "Elongation": 3.579025062 }, "geometry": { "type": "Point", "coordinates": [ -6.842413101277854, 4.765855067461938 ] } },
{ "type": "Feature", "properties": { "agglosID": 195.0, "agglosName": "Adjegounle", "ISO3": "BEN", "Pop2020": 15995.0, "Sprawl": 1.107267607, "Elongation": 11.48259128 }, "geometry": { "type": "Point", "coordinates": [ 2.609809276181276, 6.820648020270322 ] } },
{ "type": "Feature", "properties": { "agglosID": 196.0, "agglosName": "Adjengre", "ISO3": "TGO", "Pop2020": 20617.0, "Sprawl": 0.575635481, "Elongation": 7.420598039 }, "geometry": { "type": "Point", "coordinates": [ 1.017128222069005, 8.661664479314478 ] } },
{ "type": "Feature", "properties": { "agglosID": 198.0, "agglosName": "Adjumani", "ISO3": "UGA", "Pop2020": 52367.0, "Sprawl": 0.84303666, "Elongation": 9.790164767 }, "geometry": { "type": "Point", "coordinates": [ 31.782625910661402, 3.372547500000041 ] } },
{ "type": "Feature", "properties": { "agglosID": 200.0, "agglosName": "Ado boelo", "ISO3": "ETH", "Pop2020": 14867.0, "Sprawl": 0.49852836, "Elongation": 4.996659985 }, "geometry": { "type": "Point", "coordinates": [ 39.265124528085487, 7.256544474106788 ] } },
{ "type": "Feature", "properties": { "agglosID": 201.0, "agglosName": "Ado ekiti", "ISO3": "NGA", "Pop2020": 555388.0, "Sprawl": 0.488399252, "Elongation": 3.653978253 }, "geometry": { "type": "Point", "coordinates": [ 5.204285309906624, 7.624959369800556 ] } },
{ "type": "Feature", "properties": { "agglosID": 203.0, "agglosName": "Adoagyiri", "ISO3": "GHA", "Pop2020": 33890.0, "Sprawl": 1.529902987, "Elongation": 9.783311787000001 }, "geometry": { "type": "Point", "coordinates": [ -0.363782734530394, 5.813837056625642 ] } },
{ "type": "Feature", "properties": { "agglosID": 205.0, "agglosName": "Adogo gari", "ISO3": "NGA", "Pop2020": 15125.0, "Sprawl": 0.5386054, "Elongation": 4.487036486 }, "geometry": { "type": "Point", "coordinates": [ 5.240897793631436, 10.102304557790855 ] } },
{ "type": "Feature", "properties": { "agglosID": 206.0, "agglosName": "Iloshi", "ISO3": "NGA", "Pop2020": 20817.0, "Sprawl": 1.309186793, "Elongation": 8.786528615 }, "geometry": { "type": "Point", "coordinates": [ 6.471696625212446, 7.515906364621716 ] } },
{ "type": "Feature", "properties": { "agglosID": 207.0, "agglosName": "Adoka", "ISO3": "NGA", "Pop2020": 20418.0, "Sprawl": 0.629657199, "Elongation": 5.132653217 }, "geometry": { "type": "Point", "coordinates": [ 7.978648767606264, 7.453308372491628 ] } },
{ "type": "Feature", "properties": { "agglosID": 208.0, "agglosName": "Adola", "ISO3": "ETH", "Pop2020": 36661.0, "Sprawl": 0.480841646, "Elongation": 7.519284451 }, "geometry": { "type": "Point", "coordinates": [ 38.987790936345291, 5.880749675980834 ] } },
{ "type": "Feature", "properties": { "agglosID": 211.0, "agglosName": "Adoumri", "ISO3": "CMR", "Pop2020": 14869.0, "Sprawl": 0.694788421, "Elongation": 5.193938323 }, "geometry": { "type": "Point", "coordinates": [ 13.771275947116049, 9.250639420280557 ] } },
{ "type": "Feature", "properties": { "agglosID": 214.0, "agglosName": "Adrar", "ISO3": "DZA", "Pop2020": 92307.0, "Sprawl": 0.420112501, "Elongation": 6.179302423 }, "geometry": { "type": "Point", "coordinates": [ -0.312066697853452, 27.892112145093758 ] } },
{ "type": "Feature", "properties": { "agglosID": 215.0, "agglosName": "Adre", "ISO3": "TCD", "Pop2020": 23412.0, "Sprawl": null, "Elongation": null }, "geometry": { "type": "Point", "coordinates": [ 22.198881870982632, 13.461832016267806 ] } },
{ "type": "Feature", "properties": { "agglosID": 216.0, "agglosName": "Aduel", "ISO3": "SSD", "Pop2020": 42988.0, "Sprawl": null, "Elongation": null }, "geometry": { "type": "Point", "coordinates": [ 29.862018949422229, 6.567405321071404 ] } },
{ "type": "Feature", "properties": { "agglosID": 217.0, "agglosName": "Adwa", "ISO3": "ETH", "Pop2020": 96801.0, "Sprawl": 0.684063626, "Elongation": 4.338666256 }, "geometry": { "type": "Point", "coordinates": [ 38.888818088066586, 14.176339156550721 ] } },
{ "type": "Feature", "properties": { "agglosID": 218.0, "agglosName": "Adzope", "ISO3": "CIV", "Pop2020": 81975.0, "Sprawl": 0.388503887, "Elongation": 4.593013964 }, "geometry": { "type": "Point", "coordinates": [ -3.859222859182956, 6.101591652419384 ] } },
{ "type": "Feature", "properties": { "agglosID": 219.0, "agglosName": "Aït ishaq", "ISO3": "MAR", "Pop2020": 12224.0, "Sprawl": null, "Elongation": null }, "geometry": { "type": "Point", "coordinates": [ -5.726533668946526, 32.751285904422247 ] } },
{ "type": "Feature", "properties": { "agglosID": 220.0, "agglosName": "Af abeb", "ISO3": "ERI", "Pop2020": 59760.0, "Sprawl": 1.062001048, "Elongation": 6.534807928 }, "geometry": { "type": "Point", "coordinates": [ 38.689377719438241, 16.189423066205379 ] } },
{ "type": "Feature", "properties": { "agglosID": 221.0, "agglosName": "Afagnagan", "ISO3": "TGO", "Pop2020": 33854.0, "Sprawl": 0.832016238, "Elongation": 6.615857532 }, "geometry": { "type": "Point", "coordinates": [ 1.634227216289343, 6.49223824544737 ] } },
{ "type": "Feature", "properties": { "agglosID": 223.0, "agglosName": "Affery", "ISO3": "CIV", "Pop2020": 35330.0, "Sprawl": 0.525461288, "Elongation": 5.15795724 }, "geometry": { "type": "Point", "coordinates": [ -3.954342093429646, 6.322143475439264 ] } },
{ "type": "Feature", "properties": { "agglosID": 224.0, "agglosName": "Afgoye", "ISO3": "SOM", "Pop2020": 49500.0, "Sprawl": 0.451690014, "Elongation": 3.381385302 }, "geometry": { "type": "Point", "coordinates": [ 45.116245528124395, 2.141726803922462 ] } },
{ "type": "Feature", "properties": { "agglosID": 225.0, "agglosName": "Afikpo", "ISO3": "NGA", "Pop2020": 92610.0, "Sprawl": 0.549003073, "Elongation": 4.24906098 }, "geometry": { "type": "Point", "coordinates": [ 7.945644772832642, 5.87046071667041 ] } },
{ "type": "Feature", "properties": { "agglosID": 227.0, "agglosName": "Aflou", "ISO3": "DZA", "Pop2020": 164561.0, "Sprawl": 0.335709166, "Elongation": 3.694058204 }, "geometry": { "type": "Point", "coordinates": [ 2.100393733942029, 34.108016384976764 ] } },
{ "type": "Feature", "properties": { "agglosID": 228.0, "agglosName": "Afmadow", "ISO3": "SOM", "Pop2020": 20300.0, "Sprawl": 0.712442385, "Elongation": 6.022685393 }, "geometry": { "type": "Point", "coordinates": [ 42.072643367456905, 0.518592427901887 ] } },
{ "type": "Feature", "properties": { "agglosID": 229.0, "agglosName": "Afosu", "ISO3": "GHA", "Pop2020": 17665.0, "Sprawl": 1.100730874, "Elongation": 7.204535946 }, "geometry": { "type": "Point", "coordinates": [ -0.998136199481084, 6.34938697763783 ] } },
{ "type": "Feature", "properties": { "agglosID": 230.0, "agglosName": "Afourar", "ISO3": "MAR", "Pop2020": 33625.0, "Sprawl": null, "Elongation": null }, "geometry": { "type": "Point", "coordinates": [ -6.634636506302792, 32.218737490022875 ] } },
{ "type": "Feature", "properties": { "agglosID": 231.0, "agglosName": "Afukpilla/kominio", "ISO3": "NGA", "Pop2020": 12938.0, "Sprawl": 0.38155539, "Elongation": 4.399679805 }, "geometry": { "type": "Point", "coordinates": [ 6.376831782136836, 7.290808540481584 ] } },
{ "type": "Feature", "properties": { "agglosID": 232.0, "agglosName": "Afuze", "ISO3": "NGA", "Pop2020": 12449.0, "Sprawl": 0.43773817, "Elongation": 5.549773157 }, "geometry": { "type": "Point", "coordinates": [ 6.041589743170654, 6.974072593144838 ] } },
{ "type": "Feature", "properties": { "agglosID": 233.0, "agglosName": "Aga", "ISO3": "EGY", "Pop2020": 45230.0, "Sprawl": 0.396519693, "Elongation": 3.199441459 }, "geometry": { "type": "Point", "coordinates": [ 31.292248977354653, 30.945351760731207 ] } },
{ "type": "Feature", "properties": { "agglosID": 234.0, "agglosName": "Agadez", "ISO3": "NER", "Pop2020": 139454.0, "Sprawl": 0.494115137, "Elongation": 6.166792887 }, "geometry": { "type": "Point", "coordinates": [ 7.985079478830696, 16.970802420113394 ] } },
{ "type": "Feature", "properties": { "agglosID": 235.0, "agglosName": "Agadir", "ISO3": "MAR", "Pop2020": 1241584.0, "Sprawl": null, "Elongation": null }, "geometry": { "type": "Point", "coordinates": [ -9.518768170892676, 30.325914429151148 ] } },
{ "type": "Feature", "properties": { "agglosID": 236.0, "agglosName": "Agaie", "ISO3": "NGA", "Pop2020": 55583.0, "Sprawl": 0.341172874, "Elongation": 3.111751787 }, "geometry": { "type": "Point", "coordinates": [ 6.32426695040141, 9.005397456649492 ] } },
{ "type": "Feature", "properties": { "agglosID": 237.0, "agglosName": "Agareb", "ISO3": "TUN", "Pop2020": 19872.0, "Sprawl": 0.521593894, "Elongation": 3.668819643 }, "geometry": { "type": "Point", "coordinates": [ 10.520510273913777, 34.744762999662257 ] } },
{ "type": "Feature", "properties": { "agglosID": 238.0, "agglosName": "Agarfa", "ISO3": "ETH", "Pop2020": 16547.0, "Sprawl": 0.58477565, "Elongation": 8.370761605 }, "geometry": { "type": "Point", "coordinates": [ 39.823701678686376, 7.270918008639434 ] } },
{ "type": "Feature", "properties": { "agglosID": 239.0, "agglosName": "Agaro", "ISO3": "ETH", "Pop2020": 105114.0, "Sprawl": 0.534504758, "Elongation": 6.538214983 }, "geometry": { "type": "Point", "coordinates": [ 36.583916309861962, 7.844021536349476 ] } },
{ "type": "Feature", "properties": { "agglosID": 240.0, "agglosName": "Agat (k.13)", "ISO3": "ETH", "Pop2020": 12130.0, "Sprawl": null, "Elongation": null }, "geometry": { "type": "Point", "coordinates": [ 38.479191833997845, 11.61071293559336 ] } },
{ "type": "Feature", "properties": { "agglosID": 241.0, "agglosName": "Ago are", "ISO3": "NGA", "Pop2020": 17685.0, "Sprawl": 0.511056147, "Elongation": 5.116692453 }, "geometry": { "type": "Point", "coordinates": [ 3.425600909262526, 8.503100136328424 ] } },
{ "type": "Feature", "properties": { "agglosID": 247.0, "agglosName": "Agbogugu", "ISO3": "NGA", "Pop2020": 16620.0, "Sprawl": 0.925021111, "Elongation": 4.753356835 }, "geometry": { "type": "Point", "coordinates": [ 7.4741135572752, 6.252506295529386 ] } },
{ "type": "Feature", "properties": { "agglosID": 249.0, "agglosName": "Agbor", "ISO3": "NGA", "Pop2020": 209170.0, "Sprawl": 0.520268425, "Elongation": 4.720875194 }, "geometry": { "type": "Point", "coordinates": [ 6.162691982373778, 6.260567120385312 ] } },
{ "type": "Feature", "properties": { "agglosID": 250.0, "agglosName": "Agboville", "ISO3": "CIV", "Pop2020": 91975.0, "Sprawl": 0.60476932, "Elongation": 4.670197197 }, "geometry": { "type": "Point", "coordinates": [ -4.209936993128819, 5.923906742481396 ] } },
{ "type": "Feature", "properties": { "agglosID": 251.0, "agglosName": "Agbozounkpa", "ISO3": "BEN", "Pop2020": 19377.0, "Sprawl": 0.353966443, "Elongation": 6.163482888 }, "geometry": { "type": "Point", "coordinates": [ 2.27316578212243, 6.9224110406279 ] } },
{ "type": "Feature", "properties": { "agglosID": 252.0, "agglosName": "Agdz", "ISO3": "MAR", "Pop2020": 18135.0, "Sprawl": null, "Elongation": null }, "geometry": { "type": "Point", "coordinates": [ -6.448175110385838, 30.710573385080608 ] } },
{ "type": "Feature", "properties": { "agglosID": 253.0, "agglosName": "Ado/isalu/iyafin", "ISO3": "NGA", "Pop2020": 200216.0, "Sprawl": 1.355064943, "Elongation": 6.742501159 }, "geometry": { "type": "Point", "coordinates": [ 2.943149802734796, 6.527742057346838 ] } },
{ "type": "Feature", "properties": { "agglosID": 255.0, "agglosName": "Agena", "ISO3": "ETH", "Pop2020": 15797.0, "Sprawl": 0.873475631, "Elongation": 14.45229955 }, "geometry": { "type": "Point", "coordinates": [ 37.966195953438429, 8.151401293242598 ] } },
{ "type": "Feature", "properties": { "agglosID": 256.0, "agglosName": "Agenebode", "ISO3": "NGA", "Pop2020": 21071.0, "Sprawl": 0.655734387, "Elongation": 5.583280198 }, "geometry": { "type": "Point", "coordinates": [ 6.688841945224588, 7.101500376215286 ] } },
{ "type": "Feature", "properties": { "agglosID": 260.0, "agglosName": "Agnam thiodaye", "ISO3": "SEN", "Pop2020": 15900.0, "Sprawl": 0.753384507, "Elongation": 6.188356023 }, "geometry": { "type": "Point", "coordinates": [ -13.656635829871345, 15.989245779389503 ] } },
{ "type": "Feature", "properties": { "agglosID": 261.0, "agglosName": "Agnibilekrou", "ISO3": "CIV", "Pop2020": 63660.0, "Sprawl": 0.396441141, "Elongation": 4.030840303 }, "geometry": { "type": "Point", "coordinates": [ -3.206848911294233, 7.136829484973744 ] } },
{ "type": "Feature", "properties": { "agglosID": 262.0, "agglosName": "Ago amadu", "ISO3": "NGA", "Pop2020": 24180.0, "Sprawl": 0.993244214, "Elongation": 6.7971217 }, "geometry": { "type": "Point", "coordinates": [ 3.642715329951713, 8.625463291798916 ] } },
{ "type": "Feature", "properties": { "agglosID": 264.0, "agglosName": "Agosasa", "ISO3": "NGA", "Pop2020": 78714.0, "Sprawl": 1.628304871, "Elongation": 9.108010397 }, "geometry": { "type": "Point", "coordinates": [ 2.761368697244793, 6.547366897791606 ] } },
{ "type": "Feature", "properties": { "agglosID": 265.0, "agglosName": "Agogo", "ISO3": "GHA", "Pop2020": 44296.0, "Sprawl": 0.55699371, "Elongation": 4.360355398 }, "geometry": { "type": "Point", "coordinates": [ -1.088473655872489, 6.79498287504711 ] } },
{ "type": "Feature", "properties": { "agglosID": 266.0, "agglosName": "Agon", "ISO3": "BEN", "Pop2020": 17585.0, "Sprawl": 1.135606651, "Elongation": 8.406533425 }, "geometry": { "type": "Point", "coordinates": [ 2.229110212852038, 6.845854952099908 ] } },
{ "type": "Feature", "properties": { "agglosID": 267.0, "agglosName": "Agona", "ISO3": "GHA", "Pop2020": 16054.0, "Sprawl": 0.587252707, "Elongation": 5.140928784 }, "geometry": { "type": "Point", "coordinates": [ -1.495326702374533, 6.92672902020601 ] } },
{ "type": "Feature", "properties": { "agglosID": 268.0, "agglosName": "Agona kwanyako", "ISO3": "GHA", "Pop2020": 12450.0, "Sprawl": 0.806716613, "Elongation": 7.500882771 }, "geometry": { "type": "Point", "coordinates": [ -0.638152006704159, 5.58786619080995 ] } },
{ "type": "Feature", "properties": { "agglosID": 269.0, "agglosName": "Agona nkwanta", "ISO3": "GHA", "Pop2020": 19854.0, "Sprawl": 1.163950465, "Elongation": 9.108944737 }, "geometry": { "type": "Point", "coordinates": [ -1.9630166585273, 4.89453578749406 ] } },
{ "type": "Feature", "properties": { "agglosID": 270.0, "agglosName": "Agona nsaba", "ISO3": "GHA", "Pop2020": 20134.0, "Sprawl": 1.416075245, "Elongation": 7.985308041 }, "geometry": { "type": "Point", "coordinates": [ -0.750574895356573, 5.644093449183522 ] } },
{ "type": "Feature", "properties": { "agglosID": 271.0, "agglosName": "Agona nyakrom", "ISO3": "GHA", "Pop2020": 21995.0, "Sprawl": 0.304130249, "Elongation": 6.186328982 }, "geometry": { "type": "Point", "coordinates": [ -0.774327455243432, 5.61190031596448 ] } },
{ "type": "Feature", "properties": { "agglosID": 272.0, "agglosName": "Agona swedru", "ISO3": "GHA", "Pop2020": 147959.0, "Sprawl": 0.749068139, "Elongation": 5.603419108 }, "geometry": { "type": "Point", "coordinates": [ -0.687767728498989, 5.543685560795544 ] } },
{ "type": "Feature", "properties": { "agglosID": 275.0, "agglosName": "Agourai", "ISO3": "MAR", "Pop2020": 20506.0, "Sprawl": null, "Elongation": null }, "geometry": { "type": "Point", "coordinates": [ -5.591450651042092, 33.643334985579756 ] } },
{ "type": "Feature", "properties": { "agglosID": 277.0, "agglosName": "Aguelmous", "ISO3": "MAR", "Pop2020": 16598.0, "Sprawl": null, "Elongation": null }, "geometry": { "type": "Point", "coordinates": [ -5.84243295153377, 33.158017307438996 ] } },
{ "type": "Feature", "properties": { "agglosID": 278.0, "agglosName": "Aguie", "ISO3": "NER", "Pop2020": 23973.0, "Sprawl": 0.580438573, "Elongation": 4.075941319 }, "geometry": { "type": "Point", "coordinates": [ 7.779534496501284, 13.501445101735907 ] } },
{ "type": "Feature", "properties": { "agglosID": 280.0, "agglosName": "Agumu koshi", "ISO3": "NGA", "Pop2020": 13380.0, "Sprawl": 0.407363789, "Elongation": 8.53713959 }, "geometry": { "type": "Point", "coordinates": [ 4.359170223581146, 10.521585891331391 ] } },
{ "type": "Feature", "properties": { "agglosID": 281.0, "agglosName": "Agwa", "ISO3": "NGA", "Pop2020": 53758.0, "Sprawl": 0.642284857, "Elongation": 5.311911329 }, "geometry": { "type": "Point", "coordinates": [ 6.920502490765438, 4.983001572782222 ] } },
{ "type": "Feature", "properties": { "agglosID": 283.0, "agglosName": "Aha", "ISO3": "NGA", "Pop2020": 13807.0, "Sprawl": 0.54658345, "Elongation": 6.26366534 }, "geometry": { "type": "Point", "coordinates": [ 3.508550116274884, 8.586842310684508 ] } },
{ "type": "Feature", "properties": { "agglosID": 284.0, "agglosName": "Ahaba", "ISO3": "NGA", "Pop2020": 29086.0, "Sprawl": 1.313051677, "Elongation": 7.270319508 }, "geometry": { "type": "Point", "coordinates": [ 7.536537718147746, 5.733399860009458 ] } },
{ "type": "Feature", "properties": { "agglosID": 285.0, "agglosName": "Ahépé", "ISO3": "TGO", "Pop2020": 30814.0, "Sprawl": 1.062560283, "Elongation": 5.352742983 }, "geometry": { "type": "Point", "coordinates": [ 1.395558090332315, 6.607155355170342 ] } },
{ "type": "Feature", "properties": { "agglosID": 287.0, "agglosName": "Ahfir", "ISO3": "MAR", "Pop2020": 33333.0, "Sprawl": null, "Elongation": null }, "geometry": { "type": "Point", "coordinates": [ -2.108251129840357, 34.940352326754834 ] } },
{ "type": "Feature", "properties": { "agglosID": 288.0, "agglosName": "Ahigbe-koffikro", "ISO3": "CIV", "Pop2020": 21607.0, "Sprawl": 1.301514085, "Elongation": 5.005680537 }, "geometry": { "type": "Point", "coordinates": [ -3.386193458861548, 5.402934669001514 ] } },
{ "type": "Feature", "properties": { "agglosID": 289.0, "agglosName": "Ahmar mawjy", "ISO3": "SDN", "Pop2020": 13892.0, "Sprawl": 1.176503013, "Elongation": 10.67573998 }, "geometry": { "type": "Point", "coordinates": [ 34.271457352919654, 12.407012124431596 ] } },
{ "type": "Feature", "properties": { "agglosID": 290.0, "agglosName": "Ahmed rachedi", "ISO3": "DZA", "Pop2020": 11811.0, "Sprawl": 0.393410289, "Elongation": 3.083817921 }, "geometry": { "type": "Point", "coordinates": [ 6.130068056555858, 36.390758698501799 ] } },
{ "type": "Feature", "properties": { "agglosID": 291.0, "agglosName": "Ahmer el ain", "ISO3": "DZA", "Pop2020": 18121.0, "Sprawl": 0.416764918, "Elongation": 3.672334157 }, "geometry": { "type": "Point", "coordinates": [ 2.565454283057804, 36.471342900687425 ] } },
{ "type": "Feature", "properties": { "agglosID": 292.0, "agglosName": "Ahnasya", "ISO3": "EGY", "Pop2020": 82857.0, "Sprawl": 0.530041869, "Elongation": 3.45312627 }, "geometry": { "type": "Point", "coordinates": [ 30.946546305985812, 29.086631900455075 ] } },
{ "type": "Feature", "properties": { "agglosID": 293.0, "agglosName": "Ahnasya al-khadra", "ISO3": "EGY", "Pop2020": 18930.0, "Sprawl": 0.248169381, "Elongation": 2.712986001 }, "geometry": { "type": "Point", "coordinates": [ 31.021105263197779, 29.092377408325078 ] } },
{ "type": "Feature", "properties": { "agglosID": 294.0, "agglosName": "Ahoada", "ISO3": "NGA", "Pop2020": 96237.0, "Sprawl": 0.683520975, "Elongation": 4.875662398 }, "geometry": { "type": "Point", "coordinates": [ 6.651663290373006, 5.08014929894822 ] } },
{ "type": "Feature", "properties": { "agglosID": 295.0, "agglosName": "Ahomey glon", "ISO3": "BEN", "Pop2020": 15665.0, "Sprawl": null, "Elongation": null }, "geometry": { "type": "Point", "coordinates": [ 2.407255206106674, 6.54224625499375 ] } },
{ "type": "Feature", "properties": { "agglosID": 298.0, "agglosName": "Aidu", "ISO3": "NGA", "Pop2020": 34177.0, "Sprawl": 0.317371098, "Elongation": 4.698166508 }, "geometry": { "type": "Point", "coordinates": [ 7.332735197868304, 12.261083477939476 ] } },
{ "type": "Feature", "properties": { "agglosID": 300.0, "agglosName": "Ain kechera", "ISO3": "DZA", "Pop2020": 20725.0, "Sprawl": 0.750945312, "Elongation": 6.173160716 }, "geometry": { "type": "Point", "coordinates": [ 6.43450299525253, 36.750140024629999 ] } },
{ "type": "Feature", "properties": { "agglosID": 301.0, "agglosName": "Ain abid", "ISO3": "DZA", "Pop2020": 30342.0, "Sprawl": 0.391994777, "Elongation": 4.062401517 }, "geometry": { "type": "Point", "coordinates": [ 6.94412847765958, 36.23396501754543 ] } },
{ "type": "Feature", "properties": { "agglosID": 302.0, "agglosName": "Ain arnat", "ISO3": "DZA", "Pop2020": 30656.0, "Sprawl": 0.610484509, "Elongation": 6.015418974 }, "geometry": { "type": "Point", "coordinates": [ 5.311706639598952, 36.183198049447171 ] } },
{ "type": "Feature", "properties": { "agglosID": 304.0, "agglosName": "Ain azel", "ISO3": "DZA", "Pop2020": 45290.0, "Sprawl": 0.476069628, "Elongation": 5.405725406 }, "geometry": { "type": "Point", "coordinates": [ 5.515999931502238, 35.819195526576856 ] } },
{ "type": "Feature", "properties": { "agglosID": 305.0, "agglosName": "Ain babouche", "ISO3": "DZA", "Pop2020": 14745.0, "Sprawl": 0.449612384, "Elongation": 3.169890674 }, "geometry": { "type": "Point", "coordinates": [ 7.18838158841735, 35.937700569035457 ] } },
{ "type": "Feature", "properties": { "agglosID": 306.0, "agglosName": "Ain beida", "ISO3": "DZA", "Pop2020": 160004.0, "Sprawl": 0.338120627, "Elongation": 3.490517331 }, "geometry": { "type": "Point", "coordinates": [ 7.385604484230822, 35.786501076061334 ] } },
{ "type": "Feature", "properties": { "agglosID": 309.0, "agglosName": "Ain beida harriche", "ISO3": "DZA", "Pop2020": 30011.0, "Sprawl": 0.916845909, "Elongation": 6.438295497 }, "geometry": { "type": "Point", "coordinates": [ 5.88892604894899, 36.391925923340935 ] } },
{ "type": "Feature", "properties": { "agglosID": 310.0, "agglosName": "Ain bessem", "ISO3": "DZA", "Pop2020": 44803.0, "Sprawl": 0.417238413, "Elongation": 3.0238045 }, "geometry": { "type": "Point", "coordinates": [ 3.67116629217445, 36.29451575665388 ] } },
{ "type": "Feature", "properties": { "agglosID": 311.0, "agglosName": "Ain bni mathar", "ISO3": "MAR", "Pop2020": 18847.0, "Sprawl": null, "Elongation": null }, "geometry": { "type": "Point", "coordinates": [ -2.026201756757757, 34.017749652425969 ] } },
{ "type": "Feature", "properties": { "agglosID": 312.0, "agglosName": "Ain boucif", "ISO3": "DZA", "Pop2020": 20086.0, "Sprawl": 0.585744127, "Elongation": 3.619447773 }, "geometry": { "type": "Point", "coordinates": [ 3.150681450156651, 35.889298275062359 ] } },
{ "type": "Feature", "properties": { "agglosID": 313.0, "agglosName": "Ain charchar", "ISO3": "DZA", "Pop2020": 14791.0, "Sprawl": 0.535503859, "Elongation": 4.75462084 }, "geometry": { "type": "Point", "coordinates": [ 7.225006608625964, 36.733941349980938 ] } },
{ "type": "Feature", "properties": { "agglosID": 314.0, "agglosName": "Ain defla", "ISO3": "DZA", "Pop2020": 101527.0, "Sprawl": 1.322461836, "Elongation": 6.698600088 }, "geometry": { "type": "Point", "coordinates": [ 1.869482653398759, 36.21751468329672 ] } },
{ "type": "Feature", "properties": { "agglosID": 315.0, "agglosName": "Ain deheb", "ISO3": "DZA", "Pop2020": 30070.0, "Sprawl": 0.333743198, "Elongation": 3.745235826 }, "geometry": { "type": "Point", "coordinates": [ 1.550593934693033, 34.847492075784025 ] } },
{ "type": "Feature", "properties": { "agglosID": 316.0, "agglosName": "Ain djasser", "ISO3": "DZA", "Pop2020": 12659.0, "Sprawl": 0.686829764, "Elongation": 5.392792756 }, "geometry": { "type": "Point", "coordinates": [ 6.002037617553562, 35.862422067182948 ] } },
{ "type": "Feature", "properties": { "agglosID": 318.0, "agglosName": "Ain el aouda", "ISO3": "MAR", "Pop2020": 67431.0, "Sprawl": null, "Elongation": null }, "geometry": { "type": "Point", "coordinates": [ -6.797489172064566, 33.794853904382791 ] } },
{ "type": "Feature", "properties": { "agglosID": 319.0, "agglosName": "Ain el arbaa", "ISO3": "DZA", "Pop2020": 15301.0, "Sprawl": 0.324148726, "Elongation": 2.859789102 }, "geometry": { "type": "Point", "coordinates": [ -0.88034492533503, 35.405511822548334 ] } },
{ "type": "Feature", "properties": { "agglosID": 320.0, "agglosName": "Ain el assel", "ISO3": "DZA", "Pop2020": 15284.0, "Sprawl": 0.343708239, "Elongation": 4.476132488 }, "geometry": { "type": "Point", "coordinates": [ 8.379978062701976, 36.785284395016276 ] } },
{ "type": "Feature", "properties": { "agglosID": 321.0, "agglosName": "Ain el berd", "ISO3": "DZA", "Pop2020": 14747.0, "Sprawl": 0.336921733, "Elongation": 4.076101054 }, "geometry": { "type": "Point", "coordinates": [ -0.511687956494999, 35.367174953061536 ] } },
{ "type": "Feature", "properties": { "agglosID": 323.0, "agglosName": "Ain el hadid", "ISO3": "DZA", "Pop2020": 13373.0, "Sprawl": 0.562584428, "Elongation": 3.032566952 }, "geometry": { "type": "Point", "coordinates": [ 0.882538614870372, 35.061526969733023 ] } },
{ "type": "Feature", "properties": { "agglosID": 324.0, "agglosName": "Ain el hadjar 2", "ISO3": "DZA", "Pop2020": 28151.0, "Sprawl": 0.618087701, "Elongation": 3.559659174 }, "geometry": { "type": "Point", "coordinates": [ 0.151186017209542, 34.761131209933808 ] } },
{ "type": "Feature", "properties": { "agglosID": 325.0, "agglosName": "Ain el hadjar 1", "ISO3": "DZA", "Pop2020": 13865.0, "Sprawl": null, "Elongation": null }, "geometry": { "type": "Point", "coordinates": [ 5.51177638627588, 35.902395444502808 ] } },
{ "type": "Feature", "properties": { "agglosID": 326.0, "agglosName": "Ain el hadjel", "ISO3": "DZA", "Pop2020": 35893.0, "Sprawl": 0.355198514, "Elongation": 3.462842346 }, "geometry": { "type": "Point", "coordinates": [ 3.887463366856483, 35.664858913129571 ] } },
{ "type": "Feature", "properties": { "agglosID": 327.0, "agglosName": "Ain el hammam", "ISO3": "DZA", "Pop2020": 84383.0, "Sprawl": 2.180068974, "Elongation": 10.68883147 }, "geometry": { "type": "Point", "coordinates": [ 4.380299077226136, 36.603392424407431 ] } },
{ "type": "Feature", "properties": { "agglosID": 328.0, "agglosName": "Ain el ibel", "ISO3": "DZA", "Pop2020": 23822.0, "Sprawl": 0.429751896, "Elongation": 5.019786226 }, "geometry": { "type": "Point", "coordinates": [ 3.219210779911675, 34.355545197087764 ] } },
{ "type": "Feature", "properties": { "agglosID": 329.0, "agglosName": "Ain el kebira", "ISO3": "DZA", "Pop2020": 38247.0, "Sprawl": 0.732577716, "Elongation": 5.758708717 }, "geometry": { "type": "Point", "coordinates": [ 5.508161126849804, 36.370081336017414 ] } },
{ "type": "Feature", "properties": { "agglosID": 330.0, "agglosName": "Ain el melh", "ISO3": "DZA", "Pop2020": 50493.0, "Sprawl": 0.391721664, "Elongation": 4.888337758 }, "geometry": { "type": "Point", "coordinates": [ 4.154512852627993, 34.850716543350813 ] } },
{ "type": "Feature", "properties": { "agglosID": 331.0, "agglosName": "Ain errich", "ISO3": "DZA", "Pop2020": 25974.0, "Sprawl": 0.559416145, "Elongation": 6.919255357 }, "geometry": { "type": "Point", "coordinates": [ 4.095640229783688, 34.68272905598019 ] } },
{ "type": "Feature", "properties": { "agglosID": 332.0, "agglosName": "Ain fakroun", "ISO3": "DZA", "Pop2020": 67014.0, "Sprawl": 0.417019537, "Elongation": 6.07073036 }, "geometry": { "type": "Point", "coordinates": [ 6.868579046972696, 35.974125182717621 ] } },
{ "type": "Feature", "properties": { "agglosID": 333.0, "agglosName": "Ain fekan", "ISO3": "DZA", "Pop2020": 11812.0, "Sprawl": 0.376498881, "Elongation": 3.724304703 }, "geometry": { "type": "Point", "coordinates": [ -0.005924925913543, 35.224637982056898 ] } },
{ "type": "Feature", "properties": { "agglosID": 334.0, "agglosName": "Ain fekka", "ISO3": "DZA", "Pop2020": 22968.0, "Sprawl": 0.303784277, "Elongation": 6.22446463 }, "geometry": { "type": "Point", "coordinates": [ 3.586874604988822, 35.432108285028733 ] } },
{ "type": "Feature", "properties": { "agglosID": 336.0, "agglosName": "Ain kercha", "ISO3": "DZA", "Pop2020": 35221.0, "Sprawl": 0.356353858, "Elongation": 3.558375285 }, "geometry": { "type": "Point", "coordinates": [ 6.68867876598164, 35.926532985803853 ] } },
{ "type": "Feature", "properties": { "agglosID": 337.0, "agglosName": "Ain kermes", "ISO3": "DZA", "Pop2020": 20079.0, "Sprawl": 0.345447339, "Elongation": 2.844041965 }, "geometry": { "type": "Point", "coordinates": [ 1.107242690521126, 34.906800258043233 ] } },
{ "type": "Feature", "properties": { "agglosID": 338.0, "agglosName": "Ain khadra", "ISO3": "DZA", "Pop2020": 27805.0, "Sprawl": 1.172182333, "Elongation": 8.442225695 }, "geometry": { "type": "Point", "coordinates": [ 4.984418226198964, 35.551773778407657 ] } },
{ "type": "Feature", "properties": { "agglosID": 339.0, "agglosName": "Ain lechiakh", "ISO3": "DZA", "Pop2020": 12714.0, "Sprawl": 0.515914279, "Elongation": 4.479775637 }, "geometry": { "type": "Point", "coordinates": [ 2.410250083256259, 36.153306337247216 ] } },
{ "type": "Feature", "properties": { "agglosID": 340.0, "agglosName": "Ain maabed", "ISO3": "DZA", "Pop2020": 21738.0, "Sprawl": 0.449351194, "Elongation": 3.674243489 }, "geometry": { "type": "Point", "coordinates": [ 3.128172582545042, 34.805907589078501 ] } },
{ "type": "Feature", "properties": { "agglosID": 341.0, "agglosName": "Ain makhlouf", "ISO3": "DZA", "Pop2020": 11885.0, "Sprawl": 0.469545824, "Elongation": 2.836573479 }, "geometry": { "type": "Point", "coordinates": [ 7.24871811235217, 36.243128788185473 ] } },
{ "type": "Feature", "properties": { "agglosID": 342.0, "agglosName": "Ain merane", "ISO3": "DZA", "Pop2020": 22071.0, "Sprawl": 0.369767492, "Elongation": 2.512930773 }, "geometry": { "type": "Point", "coordinates": [ 0.974361645126749, 36.162176784372761 ] } },
{ "type": "Feature", "properties": { "agglosID": 343.0, "agglosName": "Ain m'lila", "ISO3": "DZA", "Pop2020": 119808.0, "Sprawl": 0.58056241, "Elongation": 3.91891375 }, "geometry": { "type": "Point", "coordinates": [ 6.572203216103424, 36.023764999769696 ] } },
{ "type": "Feature", "properties": { "agglosID": 344.0, "agglosName": "Ain nouissy", "ISO3": "DZA", "Pop2020": 13171.0, "Sprawl": 0.465280416, "Elongation": 3.452552943 }, "geometry": { "type": "Point", "coordinates": [ 0.048776454578899, 35.80275655499112 ] } },
{ "type": "Feature", "properties": { "agglosID": 345.0, "agglosName": "Ain oghrab", "ISO3": "DZA", "Pop2020": 11959.0, "Sprawl": 0.328587094, "Elongation": 2.974108998 }, "geometry": { "type": "Point", "coordinates": [ 4.089861105437514, 34.991382727650418 ] } },
{ "type": "Feature", "properties": { "agglosID": 346.0, "agglosName": "Ain oulmene", "ISO3": "DZA", "Pop2020": 92126.0, "Sprawl": 0.919531761, "Elongation": 8.162416531 }, "geometry": { "type": "Point", "coordinates": [ 5.288979422327748, 35.93493580468359 ] } },
{ "type": "Feature", "properties": { "agglosID": 347.0, "agglosName": "Ain oussera", "ISO3": "DZA", "Pop2020": 148641.0, "Sprawl": 0.288185029, "Elongation": 3.669013572 }, "geometry": { "type": "Point", "coordinates": [ 2.896244640216969, 35.447448942471681 ] } },
{ "type": "Feature", "properties": { "agglosID": 348.0, "agglosName": "Ain sefra", "ISO3": "DZA", "Pop2020": 71963.0, "Sprawl": 0.486904895, "Elongation": 4.719901153 }, "geometry": { "type": "Point", "coordinates": [ -0.590704568533348, 32.752668008669474 ] } },
{ "type": "Feature", "properties": { "agglosID": 349.0, "agglosName": "Ain sidi ali", "ISO3": "DZA", "Pop2020": 19338.0, "Sprawl": null, "Elongation": null }, "geometry": { "type": "Point", "coordinates": [ 1.542086397711035, 34.157670718037636 ] } },
{ "type": "Feature", "properties": { "agglosID": 350.0, "agglosName": "Ain smara", "ISO3": "DZA", "Pop2020": 49795.0, "Sprawl": 0.629541284, "Elongation": 3.36613926 }, "geometry": { "type": "Point", "coordinates": [ 6.493591717819744, 36.263617861594732 ] } },
{ "type": "Feature", "properties": { "agglosID": 351.0, "agglosName": "Ain tadles", "ISO3": "DZA", "Pop2020": 17822.0, "Sprawl": 0.449283426, "Elongation": 3.419956239 }, "geometry": { "type": "Point", "coordinates": [ 0.297274040634674, 35.991078737663614 ] } },
{ "type": "Feature", "properties": { "agglosID": 352.0, "agglosName": "Ain taoujdate", "ISO3": "MAR", "Pop2020": 40549.0, "Sprawl": null, "Elongation": null }, "geometry": { "type": "Point", "coordinates": [ -5.215112093734244, 33.921530200615791 ] } },
{ "type": "Feature", "properties": { "agglosID": 353.0, "agglosName": "Ain tarek", "ISO3": "DZA", "Pop2020": 10090.0, "Sprawl": 0.579246707, "Elongation": 3.772148802 }, "geometry": { "type": "Point", "coordinates": [ 1.129850144196937, 35.781015419865994 ] } },
{ "type": "Feature", "properties": { "agglosID": 355.0, "agglosName": "Ain temouchent", "ISO3": "DZA", "Pop2020": 91076.0, "Sprawl": 0.423330884, "Elongation": 3.099364621 }, "geometry": { "type": "Point", "coordinates": [ -1.137412596754907, 35.301596012128236 ] } },
{ "type": "Feature", "properties": { "agglosID": 356.0, "agglosName": "Ain tolba", "ISO3": "DZA", "Pop2020": 12936.0, "Sprawl": 0.605278862, "Elongation": 3.483642775 }, "geometry": { "type": "Point", "coordinates": [ -1.257880129401729, 35.255286680281102 ] } },
{ "type": "Feature", "properties": { "agglosID": 357.0, "agglosName": "Ain touila", "ISO3": "DZA", "Pop2020": 11757.0, "Sprawl": 0.350493168, "Elongation": 4.82448036 }, "geometry": { "type": "Point", "coordinates": [ 7.462752556855096, 35.439041618106714 ] } },
{ "type": "Feature", "properties": { "agglosID": 358.0, "agglosName": "Ain touta", "ISO3": "DZA", "Pop2020": 63363.0, "Sprawl": 0.319625104, "Elongation": 4.056550616 }, "geometry": { "type": "Point", "coordinates": [ 5.906080815411318, 35.38568911063517 ] } },
{ "type": "Feature", "properties": { "agglosID": 359.0, "agglosName": "Ain turk", "ISO3": "DZA", "Pop2020": 91122.0, "Sprawl": 1.400851689, "Elongation": 8.034419135 }, "geometry": { "type": "Point", "coordinates": [ -0.780956066151023, 35.723413603903872 ] } },
{ "type": "Feature", "properties": { "agglosID": 360.0, "agglosName": "Ain youcef", "ISO3": "DZA", "Pop2020": 13355.0, "Sprawl": 0.360859087, "Elongation": 3.059613136 }, "geometry": { "type": "Point", "coordinates": [ -1.376095969186672, 35.047812171498599 ] } },
{ "type": "Feature", "properties": { "agglosID": 362.0, "agglosName": "Aioun el atrouss", "ISO3": "MRT", "Pop2020": 27354.0, "Sprawl": 0.599959847, "Elongation": 8.817032558 }, "geometry": { "type": "Point", "coordinates": [ -9.612900347354774, 16.64946523992834 ] } },
{ "type": "Feature", "properties": { "agglosID": 363.0, "agglosName": "Aisegba", "ISO3": "NGA", "Pop2020": 11640.0, "Sprawl": 0.519318293, "Elongation": 4.886795262 }, "geometry": { "type": "Point", "coordinates": [ 5.48592218630513, 7.600685883272328 ] } },
{ "type": "Feature", "properties": { "agglosID": 365.0, "agglosName": "Ait hidja", "ISO3": "DZA", "Pop2020": 80679.0, "Sprawl": 1.503974997, "Elongation": 6.960745219 }, "geometry": { "type": "Point", "coordinates": [ 4.016119400256702, 36.523102625975859 ] } },
{ "type": "Feature", "properties": { "agglosID": 367.0, "agglosName": "Ait ourir", "ISO3": "MAR", "Pop2020": 78765.0, "Sprawl": null, "Elongation": null }, "geometry": { "type": "Point", "coordinates": [ -7.677126264188478, 31.582833232529882 ] } },
{ "type": "Feature", "properties": { "agglosID": 369.0, "agglosName": "Aiye", "ISO3": "NGA", "Pop2020": 12012.0, "Sprawl": 0.457428321, "Elongation": 5.882574717 }, "geometry": { "type": "Point", "coordinates": [ 5.800251868406412, 7.783448154087028 ] } },
{ "type": "Feature", "properties": { "agglosID": 370.0, "agglosName": "Aiye/ankpa", "ISO3": "NGA", "Pop2020": 16789.0, "Sprawl": 1.609410505, "Elongation": 8.670322737 }, "geometry": { "type": "Point", "coordinates": [ 8.028067013604163, 7.477135239845456 ] } },
{ "type": "Feature", "properties": { "agglosID": 371.0, "agglosName": "Aiyede 2", "ISO3": "NGA", "Pop2020": 14071.0, "Sprawl": 0.630948009, "Elongation": 6.970556305 }, "geometry": { "type": "Point", "coordinates": [ 5.334809259603366, 7.88769350855458 ] } },
{ "type": "Feature", "properties": { "agglosID": 372.0, "agglosName": "Aiyede 1", "ISO3": "NGA", "Pop2020": 18358.0, "Sprawl": 0.376690149, "Elongation": 4.18712145 }, "geometry": { "type": "Point", "coordinates": [ 4.389020635385428, 8.31540912768102 ] } },
{ "type": "Feature", "properties": { "agglosID": 374.0, "agglosName": "Olode", "ISO3": "NGA", "Pop2020": 20925.0, "Sprawl": 0.43686758, "Elongation": 4.126341375 }, "geometry": { "type": "Point", "coordinates": [ 4.635654422023132, 7.26230920981087 ] } },
{ "type": "Feature", "properties": { "agglosID": 375.0, "agglosName": "Aiyepe odo", "ISO3": "NGA", "Pop2020": 10899.0, "Sprawl": 0.346699373, "Elongation": 4.751240318 }, "geometry": { "type": "Point", "coordinates": [ 3.739016489285223, 6.80384470503004 ] } },
{ "type": "Feature", "properties": { "agglosID": 376.0, "agglosName": "Aiyete", "ISO3": "NGA", "Pop2020": 28461.0, "Sprawl": 0.90210993, "Elongation": 6.493246059 }, "geometry": { "type": "Point", "coordinates": [ 3.224356845968582, 7.548658420313576 ] } },
{ "type": "Feature", "properties": { "agglosID": 377.0, "agglosName": "Aiyetoro", "ISO3": "NGA", "Pop2020": 59952.0, "Sprawl": 0.447927636, "Elongation": 4.281363468 }, "geometry": { "type": "Point", "coordinates": [ 3.027855430076442, 7.238938819866244 ] } },
{ "type": "Feature", "properties": { "agglosID": 378.0, "agglosName": "Aiyetoro gbede", "ISO3": "NGA", "Pop2020": 22379.0, "Sprawl": 0.717244877, "Elongation": 6.401217721 }, "geometry": { "type": "Point", "coordinates": [ 5.987731220545704, 7.992104676354796 ] } },
{ "type": "Feature", "properties": { "agglosID": 379.0, "agglosName": "Aiyinase", "ISO3": "GHA", "Pop2020": 20484.0, "Sprawl": 0.682397225, "Elongation": 8.053751365 }, "geometry": { "type": "Point", "coordinates": [ -2.459614923532161, 5.032598631078852 ] } },
{ "type": "Feature", "properties": { "agglosID": 380.0, "agglosName": "Ajagba", "ISO3": "NGA", "Pop2020": 12250.0, "Sprawl": 0.394627607, "Elongation": 5.391368875 }, "geometry": { "type": "Point", "coordinates": [ 4.92240322502501, 6.421808096975626 ] } },
{ "type": "Feature", "properties": { "agglosID": 381.0, "agglosName": "Ajaokuta", "ISO3": "NGA", "Pop2020": 20864.0, "Sprawl": 1.383554947, "Elongation": 6.482479564 }, "geometry": { "type": "Point", "coordinates": [ 6.602069964962722, 7.563080937372366 ] } },
{ "type": "Feature", "properties": { "agglosID": 382.0, "agglosName": "Ajasse ipo", "ISO3": "NGA", "Pop2020": 17018.0, "Sprawl": 0.623799575, "Elongation": 4.833452141 }, "geometry": { "type": "Point", "coordinates": [ 4.809874135028168, 8.248117834171875 ] } },
{ "type": "Feature", "properties": { "agglosID": 384.0, "agglosName": "Ajdabiya (???????)", "ISO3": "LBY", "Pop2020": 116214.0, "Sprawl": null, "Elongation": null }, "geometry": { "type": "Point", "coordinates": [ 20.237153268115236, 30.7693610331606 ] } },
{ "type": "Feature", "properties": { "agglosID": 385.0, "agglosName": "Aje", "ISO3": "ETH", "Pop2020": 14830.0, "Sprawl": 0.410687411, "Elongation": 7.501244141 }, "geometry": { "type": "Point", "coordinates": [ 38.352877781633005, 7.302576412040792 ] } },
{ "type": "Feature", "properties": { "agglosID": 386.0, "agglosName": "Ajebar", "ISO3": "ETH", "Pop2020": 21535.0, "Sprawl": 0.690999724, "Elongation": 10.6201206 }, "geometry": { "type": "Point", "coordinates": [ 39.239887419387742, 11.228222943285179 ] } },
{ "type": "Feature", "properties": { "agglosID": 388.0, "agglosName": "Ajibar", "ISO3": "ETH", "Pop2020": 16959.0, "Sprawl": 0.775258339, "Elongation": 11.81958039 }, "geometry": { "type": "Point", "coordinates": [ 38.766017004492014, 11.036520478234767 ] } },
{ "type": "Feature", "properties": { "agglosID": 390.0, "agglosName": "Ajingi", "ISO3": "NGA", "Pop2020": 13872.0, "Sprawl": 0.376842535, "Elongation": 3.417860206 }, "geometry": { "type": "Point", "coordinates": [ 9.037284801191756, 11.96577662424674 ] } },
{ "type": "Feature", "properties": { "agglosID": 391.0, "agglosName": "Aka ese", "ISO3": "NGA", "Pop2020": 24797.0, "Sprawl": 0.748824516, "Elongation": 4.214423967 }, "geometry": { "type": "Point", "coordinates": [ 7.673290354440908, 5.912119757106896 ] } },
{ "type": "Feature", "properties": { "agglosID": 392.0, "agglosName": "Akana/ogu", "ISO3": "NGA", "Pop2020": 24087.0, "Sprawl": 0.99203568, "Elongation": 5.415382963 }, "geometry": { "type": "Point", "coordinates": [ 6.252327772789822, 4.912112267275728 ] } },
{ "type": "Feature", "properties": { "agglosID": 393.0, "agglosName": "Akabuka", "ISO3": "NGA", "Pop2020": 51475.0, "Sprawl": 0.972037773, "Elongation": 5.590320269 }, "geometry": { "type": "Point", "coordinates": [ 6.63852893290359, 5.228235734385414 ] } },
{ "type": "Feature", "properties": { "agglosID": 395.0, "agglosName": "Akahufu", "ISO3": "NGA", "Pop2020": 79098.0, "Sprawl": null, "Elongation": null }, "geometry": { "type": "Point", "coordinates": [ 8.206921364106496, 6.094308328931672 ] } },
{ "type": "Feature", "properties": { "agglosID": 398.0, "agglosName": "Akamkpa", "ISO3": "NGA", "Pop2020": 31580.0, "Sprawl": 1.068475806, "Elongation": 7.113796305 }, "geometry": { "type": "Point", "coordinates": [ 8.351262691114801, 5.317810808727232 ] } },
{ "type": "Feature", "properties": { "agglosID": 399.0, "agglosName": "Akatsi", "ISO3": "GHA", "Pop2020": 32416.0, "Sprawl": 0.7730334, "Elongation": 5.848051899 }, "geometry": { "type": "Point", "coordinates": [ 0.797820634401579, 6.126088013762554 ] } },
{ "type": "Feature", "properties": { "agglosID": 400.0, "agglosName": "Tazmalt", "ISO3": "DZA", "Pop2020": 225217.0, "Sprawl": 1.414731253, "Elongation": 11.28821697 }, "geometry": { "type": "Point", "coordinates": [ 4.391674258756604, 36.405188007882586 ] } },
{ "type": "Feature", "properties": { "agglosID": 402.0, "agglosName": "Aketi", "ISO3": "COD", "Pop2020": 33600.0, "Sprawl": 0.649587768, "Elongation": 5.090255363 }, "geometry": { "type": "Point", "coordinates": [ 23.781824411318826, 2.741859733203111 ] } },
{ "type": "Feature", "properties": { "agglosID": 404.0, "agglosName": "Akhtab", "ISO3": "EGY", "Pop2020": 16028.0, "Sprawl": 0.441194429, "Elongation": 2.773714134 }, "geometry": { "type": "Point", "coordinates": [ 31.312092564758863, 30.842449404308631 ] } },
{ "type": "Feature", "properties": { "agglosID": 405.0, "agglosName": "Akim achiase", "ISO3": "GHA", "Pop2020": 20575.0, "Sprawl": 0.555905358, "Elongation": 4.462214044 }, "geometry": { "type": "Point", "coordinates": [ -0.993568154095859, 5.834303837417708 ] } },
{ "type": "Feature", "properties": { "agglosID": 406.0, "agglosName": "Akim akroso", "ISO3": "GHA", "Pop2020": 16587.0, "Sprawl": 0.580587822, "Elongation": 4.592904742 }, "geometry": { "type": "Point", "coordinates": [ -0.766033127291032, 5.773617733386528 ] } },
{ "type": "Feature", "properties": { "agglosID": 409.0, "agglosName": "Akim oda", "ISO3": "GHA", "Pop2020": 72786.0, "Sprawl": 0.702350529, "Elongation": 4.541408881 }, "geometry": { "type": "Point", "coordinates": [ -0.981746368572589, 5.921648267197998 ] } },
{ "type": "Feature", "properties": { "agglosID": 410.0, "agglosName": "Akim swedru", "ISO3": "GHA", "Pop2020": 23988.0, "Sprawl": 0.881334604, "Elongation": 8.194939438 }, "geometry": { "type": "Point", "coordinates": [ -1.012739239933732, 5.884248188704184 ] } },
{ "type": "Feature", "properties": { "agglosID": 411.0, "agglosName": "Akjoujt", "ISO3": "MRT", "Pop2020": 16645.0, "Sprawl": 0.739696504, "Elongation": 4.36887611 }, "geometry": { "type": "Point", "coordinates": [ -14.384433166391258, 19.74232215300102 ] } },
{ "type": "Feature", "properties": { "agglosID": 413.0, "agglosName": "Aklakou", "ISO3": "TGO", "Pop2020": 20067.0, "Sprawl": 0.878390994, "Elongation": 6.372495317 }, "geometry": { "type": "Point", "coordinates": [ 1.706504462956214, 6.34356767463713 ] } },
{ "type": "Feature", "properties": { "agglosID": 415.0, "agglosName": "Akokan", "ISO3": "NER", "Pop2020": 35482.0, "Sprawl": 0.37790468, "Elongation": 5.824224657 }, "geometry": { "type": "Point", "coordinates": [ 7.33869430035734, 18.711477495543505 ] } },
{ "type": "Feature", "properties": { "agglosID": 416.0, "agglosName": "Afrancho", "ISO3": "GHA", "Pop2020": 25859.0, "Sprawl": 0.791398026, "Elongation": 6.46089243 }, "geometry": { "type": "Point", "coordinates": [ -1.970823234531782, 7.410580356217674 ] } },
{ "type": "Feature", "properties": { "agglosID": 417.0, "agglosName": "Akonolinga", "ISO3": "CMR", "Pop2020": 24558.0, "Sprawl": 0.550288256, "Elongation": 5.93710513 }, "geometry": { "type": "Point", "coordinates": [ 12.259139652514977, 3.789234040271337 ] } },
{ "type": "Feature", "properties": { "agglosID": 418.0, "agglosName": "Akordat", "ISO3": "ERI", "Pop2020": 42720.0, "Sprawl": 0.687668406, "Elongation": 4.759018284 }, "geometry": { "type": "Point", "coordinates": [ 37.882354287400069, 15.541856521405885 ] } },
{ "type": "Feature", "properties": { "agglosID": 419.0, "agglosName": "Akosombo", "ISO3": "GHA", "Pop2020": 18992.0, "Sprawl": 0.579235661, "Elongation": 4.866827576 }, "geometry": { "type": "Point", "coordinates": [ 0.034967591593451, 6.265476546707514 ] } },
{ "type": "Feature", "properties": { "agglosID": 421.0, "agglosName": "Akoupe", "ISO3": "CIV", "Pop2020": 44983.0, "Sprawl": 0.899748666, "Elongation": 5.306161272 }, "geometry": { "type": "Point", "coordinates": [ -3.890228305827882, 6.396041483203396 ] } },
{ "type": "Feature", "properties": { "agglosID": 425.0, "agglosName": "Aku", "ISO3": "NGA", "Pop2020": 55903.0, "Sprawl": 0.562382509, "Elongation": 5.964948643 }, "geometry": { "type": "Point", "coordinates": [ 7.34150276220506, 6.70197225871013 ] } },
{ "type": "Feature", "properties": { "agglosID": 426.0, "agglosName": "Akungba", "ISO3": "NGA", "Pop2020": 83183.0, "Sprawl": 0.860208949, "Elongation": 5.690239455 }, "geometry": { "type": "Point", "coordinates": [ 5.745073285455292, 7.449752838309092 ] } },
{ "type": "Feature", "properties": { "agglosID": 427.0, "agglosName": "Akure", "ISO3": "NGA", "Pop2020": 761879.0, "Sprawl": 0.506281491, "Elongation": 3.732233444 }, "geometry": { "type": "Point", "coordinates": [ 5.200617668970846, 7.249145986054284 ] } },
{ "type": "Feature", "properties": { "agglosID": 429.0, "agglosName": "Akwanga", "ISO3": "NGA", "Pop2020": 94034.0, "Sprawl": 0.509438938, "Elongation": 4.960253055 }, "geometry": { "type": "Point", "coordinates": [ 8.408345680790624, 8.898209507879933 ] } },
{ "type": "Feature", "properties": { "agglosID": 430.0, "agglosName": "Akwatia", "ISO3": "GHA", "Pop2020": 33142.0, "Sprawl": 0.686219465, "Elongation": 4.829481428 }, "geometry": { "type": "Point", "coordinates": [ -0.80118788744731, 6.045984030147936 ] } },
{ "type": "Feature", "properties": { "agglosID": 431.0, "agglosName": "Akwete", "ISO3": "NGA", "Pop2020": 12204.0, "Sprawl": 0.6753763, "Elongation": 7.098649196 }, "geometry": { "type": "Point", "coordinates": [ 7.35480569279212, 4.890041500000064 ] } },
{ "type": "Feature", "properties": { "agglosID": 433.0, "agglosName": "Al aaroui", "ISO3": "MAR", "Pop2020": 63281.0, "Sprawl": null, "Elongation": null }, "geometry": { "type": "Point", "coordinates": [ -2.987699535636929, 34.994974076245171 ] } },
{ "type": "Feature", "properties": { "agglosID": 436.0, "agglosName": "Alaba kulito", "ISO3": "ETH", "Pop2020": 60122.0, "Sprawl": 0.454055591, "Elongation": 5.844767423 }, "geometry": { "type": "Point", "coordinates": [ 38.098890039435034, 7.307400386374736 ] } },
{ "type": "Feature", "properties": { "agglosID": 438.0, "agglosName": "Alabanisi", "ISO3": "NGA", "Pop2020": 14645.0, "Sprawl": 0.761129717, "Elongation": 6.094924689 }, "geometry": { "type": "Point", "coordinates": [ 6.062116414169542, 5.337081821081264 ] } },
{ "type": "Feature", "properties": { "agglosID": 439.0, "agglosName": "Al-abasiya", "ISO3": "SDN", "Pop2020": 22958.0, "Sprawl": 0.814209332, "Elongation": 5.329062596 }, "geometry": { "type": "Point", "coordinates": [ 31.299986557855405, 12.16547731157317 ] } },
{ "type": "Feature", "properties": { "agglosID": 441.0, "agglosName": "Al-abbasiyya", "ISO3": "EGY", "Pop2020": 34086.0, "Sprawl": 0.568633012, "Elongation": 5.259295615 }, "geometry": { "type": "Point", "coordinates": [ 32.980753986186713, 24.423910752357035 ] } },
{ "type": "Feature", "properties": { "agglosID": 443.0, "agglosName": "Al-abbasiyya al-gadida", "ISO3": "EGY", "Pop2020": 34745.0, "Sprawl": 0.783895942, "Elongation": 3.88368783 }, "geometry": { "type": "Point", "coordinates": [ 30.821529581398693, 28.59112743888149 ] } },
{ "type": "Feature", "properties": { "agglosID": 444.0, "agglosName": "Al-aby?r (???????)", "ISO3": "LBY", "Pop2020": 29147.0, "Sprawl": null, "Elongation": null }, "geometry": { "type": "Point", "coordinates": [ 20.591932022522297, 32.186168984737876 ] } },
{ "type": "Feature", "properties": { "agglosID": 445.0, "agglosName": "Al-adayma", "ISO3": "EGY", "Pop2020": 16207.0, "Sprawl": 0.208866738, "Elongation": 4.273859275 }, "geometry": { "type": "Point", "coordinates": [ 32.596485361809748, 25.235353692077751 ] } },
{ "type": "Feature", "properties": { "agglosID": 447.0, "agglosName": "Alade", "ISO3": "NGA", "Pop2020": 23480.0, "Sprawl": 0.461803978, "Elongation": 3.547671726 }, "geometry": { "type": "Point", "coordinates": [ 5.099971435454796, 7.144108386509094 ] } },
{ "type": "Feature", "properties": { "agglosID": 449.0, "agglosName": "Alagbayun", "ISO3": "NGA", "Pop2020": 17537.0, "Sprawl": 0.454264668, "Elongation": 3.772482048 }, "geometry": { "type": "Point", "coordinates": [ 4.149289891256743, 8.047229706515832 ] } },
{ "type": "Feature", "properties": { "agglosID": 451.0, "agglosName": "Al-aguzin", "ISO3": "EGY", "Pop2020": 33922.0, "Sprawl": 1.335131343, "Elongation": 6.43382337 }, "geometry": { "type": "Point", "coordinates": [ 30.795682898924859, 31.177010963843458 ] } },
{ "type": "Feature", "properties": { "agglosID": 452.0, "agglosName": "Al-rahad", "ISO3": "SDN", "Pop2020": 38506.0, "Sprawl": null, "Elongation": null }, "geometry": { "type": "Point", "coordinates": [ 30.644048290872469, 12.725697516934016 ] } },
{ "type": "Feature", "properties": { "agglosID": 462.0, "agglosName": "Al-aliqat", "ISO3": "EGY", "Pop2020": 24475.0, "Sprawl": 0.994478507, "Elongation": 4.690782486 }, "geometry": { "type": "Point", "coordinates": [ 32.841223347066794, 25.931052257001021 ] } },
{ "type": "Feature", "properties": { "agglosID": 463.0, "agglosName": "Al-'am?mara (????????)", "ISO3": "LBY", "Pop2020": 12325.0, "Sprawl": null, "Elongation": null }, "geometry": { "type": "Point", "coordinates": [ 14.129633709510905, 32.521480778234256 ] } },
{ "type": "Feature", "properties": { "agglosID": 465.0, "agglosName": "Alamata", "ISO3": "ETH", "Pop2020": 76766.0, "Sprawl": 0.423690594, "Elongation": 4.35386904 }, "geometry": { "type": "Point", "coordinates": [ 39.565274705068461, 12.421305820702967 ] } },
{ "type": "Feature", "properties": { "agglosID": 467.0, "agglosName": "Al-mitimdiyya", "ISO3": "EGY", "Pop2020": 59232.0, "Sprawl": 0.623657816, "Elongation": 5.146053392 }, "geometry": { "type": "Point", "coordinates": [ 31.10046141574739, 31.004724847375027 ] } },
{ "type": "Feature", "properties": { "agglosID": 471.0, "agglosName": "Al-'aq?riya", "ISO3": "LBY", "Pop2020": 12705.0, "Sprawl": null, "Elongation": null }, "geometry": { "type": "Point", "coordinates": [ 20.58678038456366, 32.512587409611697 ] } },
{ "type": "Feature", "properties": { "agglosID": 472.0, "agglosName": "Al-arish", "ISO3": "EGY", "Pop2020": 190635.0, "Sprawl": null, "Elongation": null }, "geometry": { "type": "Point", "coordinates": [ 33.775317054617418, 31.128332984776861 ] } },
{ "type": "Feature", "properties": { "agglosID": 473.0, "agglosName": "Al-arki", "ISO3": "EGY", "Pop2020": 21921.0, "Sprawl": 0.47328136, "Elongation": 5.743261774 }, "geometry": { "type": "Point", "coordinates": [ 32.15933658329682, 26.004596967363291 ] } },
{ "type": "Feature", "properties": { "agglosID": 474.0, "agglosName": "Alaroro", "ISO3": "TCD", "Pop2020": 14709.0, "Sprawl": null, "Elongation": null }, "geometry": { "type": "Point", "coordinates": [ 19.073709990077475, 9.703799788976063 ] } },
{ "type": "Feature", "properties": { "agglosID": 475.0, "agglosName": "Al-arqub", "ISO3": "EGY", "Pop2020": 11066.0, "Sprawl": null, "Elongation": null }, "geometry": { "type": "Point", "coordinates": [ 30.029206236302024, 31.065600823008481 ] } },
{ "type": "Feature", "properties": { "agglosID": 478.0, "agglosName": "Al-asakra", "ISO3": "EGY", "Pop2020": 12404.0, "Sprawl": null, "Elongation": null }, "geometry": { "type": "Point", "coordinates": [ 30.911704276646063, 28.902823394929328 ] } },
{ "type": "Feature", "properties": { "agglosID": 479.0, "agglosName": "Al-ashmunin", "ISO3": "EGY", "Pop2020": 38100.0, "Sprawl": 0.584345229, "Elongation": 2.608344615 }, "geometry": { "type": "Point", "coordinates": [ 30.796086271857483, 27.780428736151464 ] } },
{ "type": "Feature", "properties": { "agglosID": 485.0, "agglosName": "Al-atamna & al-mazara", "ISO3": "EGY", "Pop2020": 21935.0, "Sprawl": 0.24094986, "Elongation": 3.709479144 }, "geometry": { "type": "Point", "coordinates": [ 30.735576164513311, 29.275729611074631 ] } },
{ "type": "Feature", "properties": { "agglosID": 489.0, "agglosName": "Al-awamir & bani birza", "ISO3": "EGY", "Pop2020": 13450.0, "Sprawl": 0.601767658, "Elongation": 5.834590046 }, "geometry": { "type": "Point", "coordinates": [ 32.070080290133177, 26.183132252230987 ] } },
{ "type": "Feature", "properties": { "agglosID": 492.0, "agglosName": "Al-awaysa", "ISO3": "EGY", "Pop2020": 11742.0, "Sprawl": 0.62809832, "Elongation": 4.036625117 }, "geometry": { "type": "Point", "coordinates": [ 30.733162913690155, 28.288702174077635 ] } },
{ "type": "Feature", "properties": { "agglosID": 496.0, "agglosName": "Ogbese", "ISO3": "NGA", "Pop2020": 14680.0, "Sprawl": 0.808168112, "Elongation": 5.517496805 }, "geometry": { "type": "Point", "coordinates": [ 5.355771962805462, 7.258885935898324 ] } },
{ "type": "Feature", "properties": { "agglosID": 498.0, "agglosName": "Al-azazi", "ISO3": "SDN", "Pop2020": 14744.0, "Sprawl": 0.664199042, "Elongation": 3.536346455 }, "geometry": { "type": "Point", "coordinates": [ 32.754255688665097, 14.471767502374075 ] } },
{ "type": "Feature", "properties": { "agglosID": 500.0, "agglosName": "Al-aziziyya 2", "ISO3": "EGY", "Pop2020": 66505.0, "Sprawl": 0.555757268, "Elongation": 3.126135819 }, "geometry": { "type": "Point", "coordinates": [ 31.290295301050094, 30.485147351791504 ] } },
{ "type": "Feature", "properties": { "agglosID": 501.0, "agglosName": "Al-aziziyya 1", "ISO3": "EGY", "Pop2020": 37970.0, "Sprawl": 1.152528718, "Elongation": 7.470093353 }, "geometry": { "type": "Point", "coordinates": [ 31.058645014057955, 29.425391950938355 ] } },
{ "type": "Feature", "properties": { "agglosID": 504.0, "agglosName": "Al-badari", "ISO3": "EGY", "Pop2020": 506667.0, "Sprawl": 1.463618564, "Elongation": 13.71245912 }, "geometry": { "type": "Point", "coordinates": [ 31.428969722278595, 26.96578275587698 ] } },
{ "type": "Feature", "properties": { "agglosID": 516.0, "agglosName": "Al-balamun", "ISO3": "EGY", "Pop2020": 13038.0, "Sprawl": 0.361925622, "Elongation": 2.078388328 }, "geometry": { "type": "Point", "coordinates": [ 31.434876795620202, 30.820457700757604 ] } },
{ "type": "Feature", "properties": { "agglosID": 521.0, "agglosName": "Al-banawan", "ISO3": "EGY", "Pop2020": 17677.0, "Sprawl": 0.279177614, "Elongation": 3.630073639 }, "geometry": { "type": "Point", "coordinates": [ 31.074929799904542, 31.079719978835051 ] } },
{ "type": "Feature", "properties": { "agglosID": 522.0, "agglosName": "Al-bandara", "ISO3": "EGY", "Pop2020": 12408.0, "Sprawl": 0.563155618, "Elongation": 3.84517836 }, "geometry": { "type": "Point", "coordinates": [ 31.122370731383278, 30.819345138853667 ] } },
{ "type": "Feature", "properties": { "agglosID": 523.0, "agglosName": "Al-baqliyya", "ISO3": "EGY", "Pop2020": 10865.0, "Sprawl": 0.277698429, "Elongation": 3.78386067 }, "geometry": { "type": "Point", "coordinates": [ 31.418775351411249, 30.961009136745488 ] } },
{ "type": "Feature", "properties": { "agglosID": 526.0, "agglosName": "Qift", "ISO3": "EGY", "Pop2020": 192804.0, "Sprawl": 1.057785768, "Elongation": 7.444283345 }, "geometry": { "type": "Point", "coordinates": [ 32.787751778645209, 26.047451553335002 ] } },
{ "type": "Feature", "properties": { "agglosID": 527.0, "agglosName": "Al-baramun", "ISO3": "EGY", "Pop2020": 20550.0, "Sprawl": 0.269309417, "Elongation": 2.895251779 }, "geometry": { "type": "Point", "coordinates": [ 31.445861050010535, 31.120483072513885 ] } },
{ "type": "Feature", "properties": { "agglosID": 532.0, "agglosName": "Al-barun/hillat al-mak/shaykh idr", "ISO3": "SDN", "Pop2020": 13650.0, "Sprawl": 2.302801732, "Elongation": 9.938686259000001 }, "geometry": { "type": "Point", "coordinates": [ 33.487227914486994, 11.72786723992866 ] } },
{ "type": "Feature", "properties": { "agglosID": 533.0, "agglosName": "Al-basaliyya bahri", "ISO3": "EGY", "Pop2020": 41963.0, "Sprawl": 0.577625869, "Elongation": 4.484074165 }, "geometry": { "type": "Point", "coordinates": [ 32.731206812176808, 25.129136418523089 ] } },
{ "type": "Feature", "properties": { "agglosID": 534.0, "agglosName": "Al-basaliyya qibli", "ISO3": "EGY", "Pop2020": 19699.0, "Sprawl": 0.986665673, "Elongation": 5.971367314 }, "geometry": { "type": "Point", "coordinates": [ 32.784055113965692, 25.099094667782818 ] } },
{ "type": "Feature", "properties": { "agglosID": 536.0, "agglosName": "Al-basqalun", "ISO3": "EGY", "Pop2020": 18032.0, "Sprawl": 0.248385426, "Elongation": 2.679551425 }, "geometry": { "type": "Point", "coordinates": [ 30.738426826620817, 28.704844552019615 ] } },
{ "type": "Feature", "properties": { "agglosID": 537.0, "agglosName": "Albasu", "ISO3": "NGA", "Pop2020": 12139.0, "Sprawl": 0.376596027, "Elongation": 5.25922884 }, "geometry": { "type": "Point", "coordinates": [ 9.141482934279056, 11.672009326962113 ] } },
{ "type": "Feature", "properties": { "agglosID": 540.0, "agglosName": "Al-bawgah", "ISO3": "SDN", "Pop2020": 21338.0, "Sprawl": 1.284531426, "Elongation": 8.277075538 }, "geometry": { "type": "Point", "coordinates": [ 33.886394145935711, 18.261846876638884 ] } },
{ "type": "Feature", "properties": { "agglosID": 541.0, "agglosName": "Al-bawiti", "ISO3": "EGY", "Pop2020": 36460.0, "Sprawl": 1.090993012, "Elongation": 6.608046532 }, "geometry": { "type": "Point", "coordinates": [ 28.924603535121754, 28.358416933927195 ] } },
{ "type": "Feature", "properties": { "agglosID": 542.0, "agglosName": "Al-bayda' (???????)", "ISO3": "LBY", "Pop2020": 120854.0, "Sprawl": null, "Elongation": null }, "geometry": { "type": "Point", "coordinates": [ 21.746019506259181, 32.77169250031988 ] } },
{ "type": "Feature", "properties": { "agglosID": 543.0, "agglosName": "Al-bayda & kafr muhammad shahin", "ISO3": "EGY", "Pop2020": 37358.0, "Sprawl": 0.855059323, "Elongation": 4.291100335 }, "geometry": { "type": "Point", "coordinates": [ 31.5735844239804, 30.95652593633066 ] } },
{ "type": "Feature", "properties": { "agglosID": 548.0, "agglosName": "Alberta", "ISO3": "COD", "Pop2020": 29299.0, "Sprawl": 0.833733884, "Elongation": 5.704546266 }, "geometry": { "type": "Point", "coordinates": [ 22.36208210356704, 2.215930942930935 ] } },
{ "type": "Feature", "properties": { "agglosID": 549.0, "agglosName": "Al-bihu", "ISO3": "EGY", "Pop2020": 24899.0, "Sprawl": 0.668066381, "Elongation": 3.715719824 }, "geometry": { "type": "Point", "coordinates": [ 30.731331329332885, 28.257538690572687 ] } },
{ "type": "Feature", "properties": { "agglosID": 551.0, "agglosName": "Al-birba", "ISO3": "EGY", "Pop2020": 14075.0, "Sprawl": 0.46562535, "Elongation": 6.357782038 }, "geometry": { "type": "Point", "coordinates": [ 30.739506064424383, 27.95315848571131 ] } },
{ "type": "Feature", "properties": { "agglosID": 553.0, "agglosName": "Al-birgaya", "ISO3": "EGY", "Pop2020": 32697.0, "Sprawl": 0.411120155, "Elongation": 2.719481048 }, "geometry": { "type": "Point", "coordinates": [ 30.734238320592652, 28.159895402010228 ] } },
{ "type": "Feature", "properties": { "agglosID": 554.0, "agglosName": "Al-birimbil", "ISO3": "EGY", "Pop2020": 51204.0, "Sprawl": 0.292635824, "Elongation": 2.643648776 }, "geometry": { "type": "Point", "coordinates": [ 31.250141817956891, 29.307014778929251 ] } },
{ "type": "Feature", "properties": { "agglosID": 555.0, "agglosName": "Al-birsha", "ISO3": "EGY", "Pop2020": 87448.0, "Sprawl": 0.802738363, "Elongation": 6.589191923 }, "geometry": { "type": "Point", "coordinates": [ 30.906304445411546, 27.753454848143896 ] } },
{ "type": "Feature", "properties": { "agglosID": 557.0, "agglosName": "Al-bsaber", "ISO3": "SDN", "Pop2020": 22644.0, "Sprawl": 1.567732093, "Elongation": 7.864833618 }, "geometry": { "type": "Point", "coordinates": [ 32.993466200366889, 16.511460965641891 ] } },
{ "type": "Feature", "properties": { "agglosID": 560.0, "agglosName": "Al-burayqat al-jad?da", "ISO3": "LBY", "Pop2020": 19907.0, "Sprawl": null, "Elongation": null }, "geometry": { "type": "Point", "coordinates": [ 19.729319370550236, 30.477923168878576 ] } },
{ "type": "Feature", "properties": { "agglosID": 561.0, "agglosName": "Al-burg", "ISO3": "EGY", "Pop2020": 172399.0, "Sprawl": 1.023591079, "Elongation": 7.01799724 }, "geometry": { "type": "Point", "coordinates": [ 31.086915518620572, 31.558971249948325 ] } },
{ "type": "Feature", "properties": { "agglosID": 562.0, "agglosName": "Al-bustan", "ISO3": "EGY", "Pop2020": 18570.0, "Sprawl": null, "Elongation": null }, "geometry": { "type": "Point", "coordinates": [ 30.470677216385791, 30.768843572640915 ] } },
{ "type": "Feature", "properties": { "agglosID": 563.0, "agglosName": "Al-daba", "ISO3": "EGY", "Pop2020": 25171.0, "Sprawl": 0.530087263, "Elongation": 6.322662534 }, "geometry": { "type": "Point", "coordinates": [ 28.444980236825081, 31.022388003337831 ] } },
{ "type": "Feature", "properties": { "agglosID": 565.0, "agglosName": "Al-dabbah", "ISO3": "SDN", "Pop2020": 11287.0, "Sprawl": null, "Elongation": null }, "geometry": { "type": "Point", "coordinates": [ 30.926935343382759, 18.074322155085522 ] } },
{ "type": "Feature", "properties": { "agglosID": 566.0, "agglosName": "Al-dahriyya", "ISO3": "EGY", "Pop2020": 103034.0, "Sprawl": 1.363245878, "Elongation": 5.12163 }, "geometry": { "type": "Point", "coordinates": [ 30.753232609662032, 30.839633512996397 ] } },
{ "type": "Feature", "properties": { "agglosID": 570.0, "agglosName": "Al-dalanj", "ISO3": "SDN", "Pop2020": 71853.0, "Sprawl": 0.925871815, "Elongation": 5.86219508 }, "geometry": { "type": "Point", "coordinates": [ 29.643855067182898, 12.043065393684081 ] } },
{ "type": "Feature", "properties": { "agglosID": 572.0, "agglosName": "Al-damazin", "ISO3": "SDN", "Pop2020": 245660.0, "Sprawl": 0.792772687, "Elongation": 6.972985615 }, "geometry": { "type": "Point", "coordinates": [ 34.356941291514659, 11.819343682596802 ] } },
{ "type": "Feature", "properties": { "agglosID": 573.0, "agglosName": "Al-damir", "ISO3": "SDN", "Pop2020": 107145.0, "Sprawl": 0.556569179, "Elongation": 4.728470099 }, "geometry": { "type": "Point", "coordinates": [ 33.974567819835457, 17.594829922571538 ] } },
{ "type": "Feature", "properties": { "agglosID": 574.0, "agglosName": "Al-damir i", "ISO3": "SDN", "Pop2020": 10373.0, "Sprawl": 0.842330326, "Elongation": 6.384813402 }, "geometry": { "type": "Point", "coordinates": [ 33.93212315199905, 17.546968477484089 ] } },
{ "type": "Feature", "properties": { "agglosID": 575.0, "agglosName": "Al-danabiq", "ISO3": "EGY", "Pop2020": 11624.0, "Sprawl": 0.435253261, "Elongation": 4.611441092 }, "geometry": { "type": "Point", "coordinates": [ 31.447874242915695, 31.05175700884552 ] } },
{ "type": "Feature", "properties": { "agglosID": 580.0, "agglosName": "Al-dilingat", "ISO3": "EGY", "Pop2020": 475188.0, "Sprawl": 1.15683398, "Elongation": 7.116880492 }, "geometry": { "type": "Point", "coordinates": [ 30.683988185006811, 30.863583647997132 ] } },
{ "type": "Feature", "properties": { "agglosID": 581.0, "agglosName": "Al-dindir", "ISO3": "SDN", "Pop2020": 38354.0, "Sprawl": 0.653275215, "Elongation": 5.674250463 }, "geometry": { "type": "Point", "coordinates": [ 34.089515574243933, 13.332202555755641 ] } },
{ "type": "Feature", "properties": { "agglosID": 582.0, "agglosName": "Al-dir", "ISO3": "EGY", "Pop2020": 85953.0, "Sprawl": 0.923703595, "Elongation": 8.689290362 }, "geometry": { "type": "Point", "coordinates": [ 32.592881727460473, 25.315480139394097 ] } },
{ "type": "Feature", "properties": { "agglosID": 587.0, "agglosName": "Al-duaiym", "ISO3": "SDN", "Pop2020": 310460.0, "Sprawl": 0.748359884, "Elongation": 4.950374928 }, "geometry": { "type": "Point", "coordinates": [ 26.136863317117641, 11.461460494948174 ] } },
{ "type": "Feature", "properties": { "agglosID": 588.0, "agglosName": "Al-duwaym", "ISO3": "SDN", "Pop2020": 82848.0, "Sprawl": 0.507573431, "Elongation": 3.244171435 }, "geometry": { "type": "Point", "coordinates": [ 32.301103439850465, 14.003653424632052 ] } },
{ "type": "Feature", "properties": { "agglosID": 591.0, "agglosName": "Aleg", "ISO3": "MRT", "Pop2020": 18788.0, "Sprawl": 0.669182211, "Elongation": 3.958366386 }, "geometry": { "type": "Point", "coordinates": [ -13.908219877435339, 17.053308412088299 ] } },
{ "type": "Feature", "properties": { "agglosID": 592.0, "agglosName": "Alem gebeya", "ISO3": "ETH", "Pop2020": 38189.0, "Sprawl": 0.952301903, "Elongation": 10.83109721 }, "geometry": { "type": "Point", "coordinates": [ 38.175361150638167, 7.561570434211708 ] } },
{ "type": "Feature", "properties": { "agglosID": 593.0, "agglosName": "Alem ketema", "ISO3": "ETH", "Pop2020": 24291.0, "Sprawl": 0.460267381, "Elongation": 6.699162311 }, "geometry": { "type": "Point", "coordinates": [ 38.987364205794918, 10.059016627850818 ] } },